UnitID,UnitName,Latitude,Longitude
1,Chief Office,NULL,NULL
2,Bengaluru City,NULL,NULL
3,Battalion I - Bangalore,NULL,NULL
4,Battalion III - Bangalore,NULL,NULL
5,Battalion IV - Bangalore,NULL,NULL
6,Yeshwanthapura PS,13.01826763,77.55810547
7,DCP South Division,12.91661453,77.58161163
8,DCP Central Division,12.97617626,77.59838104
9,DCP East Division,12.97495079,77.62542725
10,DCP West Division,12.97447586,77.57482147
11,Yeshwanthapura Sub-Division,13.02327633,77.54911041
12,J.C. Nagar Sub-Division,13.02472019,77.59319305
13,Malleshwaram Sub-Division,13.00273037,77.54734039
14,Jalahalli PS,13.04878902,77.54951477
15,Vidyaranyapura PS,13.08410263,77.5644455
16,Vishveshwarapuram Sub Division,NULL,NULL
17,Jayanagar Sub-Division,12.91661453,77.58161163
18,Madivala Sub-Division,12.93922043,77.61012268
19,Halasurgate Sub-Division,12.96681023,77.58716583
20,Seshadripuram Sub-Division,13.01490879,77.5725174
22,Pulakeshinagar Sub-Division,12.99127674,77.61216736
23,Banaswadi Sub Division,13.01959419,77.64019013
24,Halasur  Sub-Division,12.97495079,77.62542725
25,Airport Sub-Division,NULL,NULL
26,Byatarayanapura Sub Division,NULL,NULL
27,Vijayanagar Sub-Division,12.98530674,77.54257202
28,Chickpet Sub-Division,12.97409344,77.57537842
29,DCP North Division,13.01812935,77.55849457
30,Soladevanahalli PS,13.09033108,77.49295807
31,CAR HQ,NULL,NULL
32,Mysuru City,NULL,NULL
33,Battalion II - Belgaum,NULL,NULL
34,Battalion VI - Gulbarga,NULL,NULL
35,Battalion V - Mysore,NULL,NULL
36,Narasimharaja Sub-Division,NULL,NULL
37,Krishnaraja Sub-Division,NULL,NULL
38,Devaraja Sub-Division,NULL,NULL
39,Traffic Sub-Division,NULL,NULL
40,Mandi PS,12.31633663,76.65419769
41,Narasimharaja PS,12.33483696,76.66400147
42,Metagalli PS,12.34725094,76.63039398
43,Jayalakshmipuram PS,12.32368279,76.61271668
44,V.V. Puram PS,NULL,NULL
45,Vijayanagar PS,12.33688927,76.60163879
46,Krishnaraja PS,12.29795837,76.65049744
47,Vidyaranyarpuram PS,12.26362133,76.64472199
48,Ashokpuram PS,12.28930569,76.63129425
49,Laxmipuram PS,12.29773617,76.64283752
50,Saraswathipuram PS,12.30174828,76.6239624
51,Kuvempunagar PS,12.28633976,76.61924744
52,Devaraja PS,12.3124342,76.64925385
53,Lashkar PS,12.3143158,76.65682221
54,Nazarbad PS,12.30845738,76.66732025
55,Udayagiri PS,12.32682896,76.68090057
56,Mysuru City Women PS,12.3143158,76.65682221
57,Narasimharaja Traffic PS,12.31985569,76.65791321
58,Krishnaraja Traffic PS,12.29223633,76.64763641
59,Deveraja Traffic PS,12.30813694,76.64723969
62,Hubballi Dharwad City,NULL,NULL
63,Battalion VII - Mangalore,NULL,NULL
64,Battalion VIII - Shimoga,NULL,NULL
65,Battalion X - Haveri,NULL,NULL
66,Hubli North Sub-Division,NULL,NULL
67,Hubli South Sub-Division,NULL,NULL
68,Dharwad Sub-Division,NULL,NULL
69,Traffic Sub-Division,NULL,NULL
70,Hubballi Sub Urban PS,15.35066795,75.13925171
71,Gokul Road PS,15.3508873,75.1142273
72,Kamaripeth PS,15.34469128,75.13682556
73,Keshavapur PS,15.36026382,75.1623764
74,Vidyanagar PS,15.12468243,75.12414551
75,HD City Women PS,15.35066032,75.1392746
76,Hubballi Town PS,15.34532738,75.14306641
77,Ghantikeri PS,15.3411808,75.14206696
78,Old Hubballi PS,15.33665562,75.12693787
79,Bendigeri PS,15.34248447,75.15036774
80,Kasabapeth PS,15.33707237,75.13314819
81,Dharwad Town PS,15.45930004,75.01165009
92,Eastern Range,NULL,NULL
93,FSL Madiwala,NULL,NULL
94,Davanagere District,NULL,NULL
95,Davanagere City Sub-Division,14.464818,75.91983795
96,Azad Nagar Circle,14.46898556,75.91842651
97,Basavanagara PS,14.46922302,75.91842651
98,Azad Nagar PS,14.48089886,75.92534638
99,Gandhi Nagar PS,14.47632694,75.9203186
100,KTJ Nagar Circle,14.464818,75.91983795
101,Davanagere Extention PS,14.464818,75.91983795
102,KTJ Nagar PS,14.45409679,75.92468262
103,Vidyanagar PS,14.43467522,75.91607666
104,Davanagere Rural Sub-Division,14.45079613,75.92064667
105,Mayakonda Circle,14.45079613,75.92064667
106,Davanagere Rural PS,14.45079613,75.92064667
107,Hadadi PS,14.36991692,75.89441681
108,Mayakonda PS,14.28295994,76.08058167
109,Harihara Circle,14.51474953,75.80686951
110,Harihara Town PS,14.51474953,75.80686951
111,Harihara Rural PS,14.53554535,75.81291962
112,Malebennur PS,14.35170841,75.73856354
113,Harapanahalli Sub Division,NULL,NULL
114,Harapanahalli Circle,NULL,NULL
115,Harapanahalli PS,14.78911686,75.98664093
116,Halavagilu PS,14.71027565,75.78057861
117,Arasikere PS,14.67028332,76.07437134
118,Jagalur Circle,14.52272511,76.34017944
119,Jagalur PS,14.5200491,76.33728027
120,Bilichodu PS,14.50458336,76.16030121
132,DAVANAGERE DAR,NULL,NULL
133,Haveri District,NULL,NULL
134,Haveri Sub-Division,NULL,NULL
135,Haveri Circle,NULL,NULL
136,Haveri Town PS,14.79303455,75.39658356
137,Haveri Rural PS,14.78392029,75.38816071
138,Guttal PS,14.83988094,75.63024139
139,Byadagi Circle,NULL,NULL
140,Byadagi PS,14.68018246,75.49480438
141,Kaginele PS,14.6914568,75.35792542
142,Ranebennur Town PS,14.6215353,75.63555145
143,Ranebennur Sub-Division,NULL,NULL
144,Ranebennur Town Circle,NULL,NULL
145,Ranebennur Traffic PS,14.62020016,75.62082672
146,Ranebennur Rural PS,14.62048054,75.62504578
147,Halageri PS,14.5534668,75.60566711
148,Kumarapatnam Circle,NULL,NULL
149,Kumarapattanam PS,14.52090645,75.78637695
150,Hirekerur  PS,14.45598126,75.39292908
151,Hansabhavi PS,14.5699749,75.36875916
152,Shiggaon Sub-Division,NULL,NULL
153,Hirekerur Circle,NULL,NULL
154,Rattihalli PS,14.42712307,75.50765991
155,Shiggaon PS,14.98939228,75.22647095
156,Tadas PS,15.12466431,75.12419891
157,Shiggaon Circle,NULL,NULL
158,Savanoor PS,14.97742653,75.33776093
159,Hanagal PS,14.77210426,75.12470245
160,Adur PS,14.77354336,75.2509079
166,Hanagal Circle,NULL,NULL
171,HAVERI DAR,NULL,NULL
172,Gadag District,NULL,NULL
173,Gadag Sub-Division,NULL,NULL
174,Gadag Town Circle,NULL,NULL
175,Gadag Town PS,15.42922878,75.6326294
176,Gadag Traffic PS,15.42416668,75.62472534
178,Gadag Rural Circle,NULL,NULL
179,Gadag Rural PS,15.43440247,75.63516998
180,Mulagund PS,15.28220558,75.51811981
210,GADAG DAR,NULL,NULL
211,K.G.F District,NULL,NULL
212,K.G.F Sub-Division,NULL,NULL
213,Oorgaum Circle,NULL,NULL
214,Oorgaum PS,12.9549942,78.25925446
215,BEML Nagar PS,12.97940922,78.23875427
217,Robertsonpet Circle,NULL,NULL
218,Robertsonpet  PS,12.95755959,78.27155304
219,Andersonpet  PS,12.93422031,78.27026367
220,Mysore CAR,NULL,NULL
222,Champion Reefs  Circle,NULL,NULL
223,Champion Reefs  PS,12.93287659,78.26016998
224,Marikuppam  PS,12.92712021,78.26590729
226,Bangarpet  Circle,NULL,NULL
227,Bangarpet  PS,12.98915768,78.17768097
228,Bethamangala PS,13.0063324,78.32980347
229,Kamasamudram PS,12.879385,78.19975281
232,Sringeri  PS,13.41886044,75.25305939
234,Hubli Dharwad CAR,NULL,NULL
236,SP Railways,NULL,NULL
237,Bengaluru Rly Sub Division,NULL,NULL
238,Bengaluru City Rly Circle,NULL,NULL
241,Bengaluru City Rly PS,12.97700882,77.56828308
242,Bengaluru Rural Rly PS,13.02152634,77.55294037
243,Bangalore Cantonment Rly Circle,NULL,NULL
245,Bengaluru Cantonment Rly PS,12.99360657,77.59851837
246,Bangarpet Rly PS,15.83119679,78.03211975
247,Byappanahalli Rly PS,12.99616337,77.64269257
248,Hubballi Rly PS,15.35196018,75.14685822
249,K.G.F DAR,NULL,NULL
250,Bengaluru District,NULL,NULL
251,Bangalore Sub-Division,NULL,NULL
252,Nandagudi Circle,NULL,NULL
253,Hosakote PS,13.07022858,77.78263855
254,Nandagudi PS,13.20375729,77.90317535
257,Kadugodi PS,12.99541473,77.75782013
258,Whitefield PS,12.9753561,77.75107575
259,Varthur PS,12.93803406,77.74691773
260,Doddaballapura Sub-Division,NULL,NULL
261,Doddaballapura Circle,NULL,NULL
262,Doddaballapura Town PS,13.3087492,77.54458618
263,Doddaballapura Rural PS,13.30843067,77.53790283
264,Doddabelavangala PS,NULL,NULL
266,Devanahalli PS,13.24538612,77.71208954
267,Vijayapura PS,13.29428101,77.80277252
268,Chikkajala PS,13.17235661,77.63278198
269,Nelamangala Sub-Division,NULL,NULL
270,Nelamangala Circle,NULL,NULL
271,Nelamangala Town PS,13.0996027,77.39112854
272,Dobbespet PS,NULL,NULL
273,Thyamagondlu PS,13.21603584,77.30056763
274,Magadi Circle,NULL,NULL
275,Magadi PS,12.95516491,77.22635651
276,Kudur PS,13.10702515,77.16536713
277,Tavarekere PS,12.96620846,77.40065765
278,Channapatna Sub-Division,NULL,NULL
279,Channapatna Town Circle,NULL,NULL
280,Channapatna Town PS,12.65370464,77.20050049
281,Channapatna East PS,12.66382027,77.21679688
283,Channapatna Rural Circle,NULL,NULL
284,Channapatna Rural PS,12.66382027,77.21679688
285,M.K. Doddi PS,12.70615006,77.13556671
286,Akkur PS,12.56741047,77.19911957
287,Belagavi Rly PS,15.84955502,74.50901794
288,BANGALORE DAR,NULL,NULL
289,Belagavi District,NULL,NULL
290,Market Sub Division,NULL,NULL
292,Market PS,15.86247063,74.51966858
296,Shahapura PS,15.83808899,74.518013
297,Malamaruthi PS,15.88173771,74.52919006
298,APMC Yard PS,NULL,NULL
299,Khadebazar Sub Division,NULL,NULL
301,Khadebazar PS,15.86237907,74.51073456
302,Tilakwadi PS,15.83594418,74.50153351
303,Camp PS,15.85470963,74.50454712
304,Belgaum Traffic Circle,NULL,NULL
305,Belgaum South Traffic PS,NULL,NULL
306,Belgaum North Traffic PS,15.86322975,74.51307678
308,Belgaum Rural Sub Division,NULL,NULL
309,Belgaum Rural Circle,NULL,NULL
310,Belagavi Rural PS,15.83317089,74.51456451
311,Kakati PS,15.92986012,74.52750397
313,Khanapur Circle,15.38171959,74.30444336
314,Khanapur PS,15.63626671,74.50560761
315,Nandagad PS,15.57993031,74.57636261
317,Gokak Sub-Division,16.16267014,74.81036377
318,Gokak Circle,16.16267014,74.81036377
319,Gokak Rural PS,16.16267014,74.81036377
323,Gokak Town PS,16.10362625,74.68560028
324,Ankalgi PS,16.05132866,74.51753998
327,BELGAUM DAR,NULL,NULL
328,Central Range,NULL,NULL
329,RFSL Mangalore,NULL,NULL
330,Ballari District,NULL,NULL
331,Bellary City Sub-Division,NULL,NULL
333,Brucepet PS,15.14453411,76.92542267
334,Cowlbazar PS,15.13752556,76.90287018
335,Gandhinagar PS,15.14515495,76.93050385
337,Bellary Traffic PS,15.13512039,76.91944122
338,Bellary Rural PS,15.14463425,76.9252243
339,P.D. Halli PS,15.1451683,77.05162811
340,Siruguppa Sub Division,NULL,NULL
341,P D Halli Circle,NULL,NULL
342,Moka PS,15.24180794,77.05941773
343,Kurugod PS,15.34454632,76.83530426
344,Tekkalkota PS,15.53785133,76.88158417
345,Tekkalkota Circle,NULL,NULL
346,Sirigeri PS,15.44990158,76.84300995
347,Siruguppa PS,15.6369009,76.89378357
348,Hatcholli PS,15.76270104,76.99739838
349,Hospet Sub Division,NULL,NULL
350,Tunga Bhadra Dam Circle,NULL,NULL
351,Hospet Town PS,15.27424526,76.38847351
352,Hospet Extention PS,15.26285172,76.37664795
353,T.B. Dam PS,NULL,NULL
354,Kampli Circle,NULL,NULL
355,Hospet Traffic PS,15.25352001,76.37083435
356,Hospet Rural PS,15.2745142,76.38790131
357,Kampli  PS,15.40637207,76.59915161
358,Kudligi Sub Division,NULL,NULL
359,Kudligi Circle,NULL,NULL
360,Kamalapur PS,15.30604267,76.47382355
361,Chittavadagi PS,15.27727222,76.38232422
362,Gadiganur PS,15.22349644,76.59658814
363,Kottur Circle,NULL,NULL
364,Thoranagal PS,15.19290543,76.67201996
365,Mariyammanahalli PS,15.15792275,76.35597992
366,Sandur PS,15.08381653,76.54373932
368,BELLARY DAR,NULL,NULL
369,Bidar District,NULL,NULL
370,Bidar Sub-Division,NULL,NULL
371,Bidar Town Circle,NULL,NULL
372,Bidar Sub Urban PS,17.91286278,77.53070831
373,New Town PS,17.92355728,77.50915527
374,Gandhi Gunj PS,17.91004944,77.51602173
375,Bidar Market Circle,NULL,NULL
376,Market PS,15.86247063,74.51966858
377,Bidar Traffic PS,17.90740967,77.53231812
379,Humnabad Sub-Division,NULL,NULL
380,Chitaguppa Circle,NULL,NULL
381,Chitaguppa PS,17.69238854,77.21125794
382,Manna Ekhelli PS,17.72746277,77.36743927
383,Bemalkhed PS,17.66216087,77.4246521
384,Humnabad Circle,NULL,NULL
385,Humnabad PS,17.7721405,77.12350464
386,Hallikhed PS,17.85165787,77.26441956
388,Bhalki Sub-Division,NULL,NULL
389,Bhalki Rural Circle,NULL,NULL
390,Bhalki Rural PS,18.04370689,77.21042633
391,Khataka Chincholi PS,17.89666557,77.2040329
392,Dhannura PS,17.95837593,77.33805847
393,Kamalanagar Circle,NULL,NULL
394,Kamalanagar PS,18.23563576,77.17746735
395,Kushnoor PS,18.15439034,77.32850647
396,Bidar Rural PS,17.93519402,77.47768402
399,Janwada PS,18.00456047,77.48136902
400,Bagdal PS,17.75112724,77.40016937
401,Basava Kalyana Town PS,17.87386513,76.94757843
403,Basava Kalyana Rural PS,17.87561989,76.96296692
404,Hulsoor PS,18.01993561,77.00589752
405,Basava Kalyana Traffic PS,17.82312965,76.92887116
407,BIDAR DAR,NULL,NULL
408,Vijayapur District,NULL,NULL
409,Vijayapura Sub Division,NULL,NULL
410,Vijayapura Town Circle,NULL,NULL
411,Gandhi Chowk PS,16.82881928,75.71502686
412,Vijayapura Traffic PS,16.82859993,75.71469879
414,Vijayapura Rural Circle,NULL,NULL
415,Vijayapura Rural PS,16.84503174,75.51791382
416,Babaleshwar PS,16.66583061,75.58032227
417,Tikota PS,16.84449768,75.51792908
418,Indi Sub-Division,NULL,NULL
419,Indi Rural Circle,NULL,NULL
420,Indi PS,17.17744637,75.95561981
421,Hortti PS,17.11802673,75.78509522
423,Chadachan Circle,NULL,NULL
424,Chadachan PS,17.31232834,75.66844177
425,Zalaki PS,17.25153732,75.8012619
427,Basavan Bagewadi Sub-Division,NULL,NULL
428,Nidagundi Circle,NULL,NULL
429,Basavan Bagewadi PS,16.56873131,75.96852875
430,Kolhar PS,16.46885872,75.68978882
431,Managuli PS,16.64864922,75.81687927
432,Muddebihal Circle,NULL,NULL
433,Muddebihal PS,16.34910011,76.12876892
434,Talikot PS,16.47981072,76.31056213
446,Vijayapura DAR,NULL,NULL
447,Chikkamagaluru District,NULL,NULL
448,Chickmagalur Sub-Division,NULL,NULL
449,Basavanahalli Circle,NULL,NULL
450,Chickmagalur Town PS,13.32054234,75.77542114
451,Basavanahalli  PS,13.33989525,75.77230835
452,Chickmagalur Traffic PS,13.33794403,75.7742157
453,Aldur Circle,NULL,NULL
454,Chickmagalur Rural  PS,NULL,NULL
455,Aldur PS,13.24324703,75.65181732
456,Balur  PS,13.15339375,75.50314331
457,Koppa Sub-Division,NULL,NULL
458,Mudigere Circle,NULL,NULL
459,Mudigere PS,13.13391972,75.6417923
460,Banakal  PS,13.13742638,75.55448914
461,Gonibeedu PS,13.09992123,75.70807648
462,Koppa Circle,NULL,NULL
463,Balehonnur PS,13.35118389,75.46579742
464,Koppa  PS,NULL,NULL
465,Hariharapura PS,13.52015305,75.29983521
466,Tarikere Sub-Division,NULL,NULL
468,Tarikere Town PS,13.7128849,75.80792236
469,Yagati PS,13.61104393,76.14754486
470,N.R. Pura PS,13.61487103,75.50416565
471,Tarikere Rural Circle,NULL,NULL
473,Lingadahalli PS,13.604146,75.84004974
474,Ajjampura PS,13.75662613,75.99986267
476,Birur Circle,NULL,NULL
477,Birur PS,13.59902477,75.97240448
479,Singatagere PS,13.55178261,76.17475891
480,Kadur  Circle,NULL,NULL
481,Kadur PS,13.54718208,76.01965332
482,Sakkaraya Patna PS,13.43594933,75.9174881
483,Panchanahalli PS,13.54704285,76.33293152
485,CHICKMAGALUR DAR,NULL,NULL
486,Chitradurga District,NULL,NULL
487,Chitradurga Sub-Division,NULL,NULL
488,Chitradurga Extention Circle,NULL,NULL
489,Chitradurga Town PS,14.22749996,76.40750122
490,Chitradurga Kote PS,14.21749973,76.38739777
491,Chitradurga Traffic PS,14.22980022,76.39089966
492,Chitradurga Rural Circle,NULL,NULL
493,Chitradurga Rural PS,14.23600006,76.40390015
494,Bharamasagara PS,14.36970043,76.19229889
495,Turuvanur (Jogi) PS,14.40359974,76.43849945
496,Challakere Sub-Division,NULL,NULL
497,Holalkere Circle,NULL,NULL
498,Holalkere PS,14.04125977,76.18471527
499,Chikkajajur PS,14.12749958,76.13970184
500,Challakere PS,14.31470013,76.64859772
501,Thalak Circle,NULL,NULL
502,Nayakanhatti PS,14.46809959,76.54550171
503,Thalak  PS,14.44820023,76.67350006
504,Parasurampura PS,14.25520039,76.88359833
505,Hiriyur Sub-Division,NULL,NULL
506,Molakalmuru Circle,NULL,NULL
507,Molakalmuru PS,14.71804619,76.74569702
508,Rampura PS,14.88479996,76.78420258
509,Hiriyur Town PS,13.94470024,76.61450195
510,Imangala Circle,NULL,NULL
511,Imangala PS,14.0951004,76.53420258
512,Abbinahole PS,14.04170036,76.75150299
513,Hosadurga PS,13.79794979,76.28225708
515,Hosadurga Circle,NULL,NULL
516,Srirampura PS,13.61909962,76.42050171
524,CHITRADURGA DAR,NULL,NULL
564,Southern Range,NULL,NULL
565,RFSL Davanagere,NULL,NULL
566,KODAGU(Madikeri) District,NULL,NULL
567,Madikeri Sub-Division,NULL,NULL
568,Madikeri Town Circle,NULL,NULL
569,Madikeri Town PS,12.42109108,75.74042511
570,Siddapura PS,12.29815865,75.87554932
571,Madikeri Traffic  PS,12.42967224,75.72557068
572,Madikeri Rural Circle,NULL,NULL
573,Napoklu PS,12.31025219,75.68939209
574,Bhagamandala PS,12.38704681,75.53484345
575,Madikeri Rural PS,12.42976666,75.72543335
576,Virajpet Sub-Division,NULL,NULL
577,Virajpet Circle,NULL,NULL
578,Virajpet Town PS,12.19282913,75.8010788
579,Virajpet Rural PS,12.19294643,75.80120087
581,Gonikoppa Circle,NULL,NULL
582,Gonikoppa PS,12.18565273,75.92311859
583,Ponnampet PS,12.14741135,75.94202423
585,Somwarpet Sub-Division,NULL,NULL
586,Kushalnagar Circle,NULL,NULL
587,Kushalnagar Town PS,12.48447323,75.95642853
588,Sunticoppa PS,12.45247841,75.82907105
590,Somwarpet Circle,NULL,NULL
591,Somwarpet PS,12.5968895,75.84977722
592,Shanivarasanthe PS,12.72695828,75.89398193
603,Gulbarga  Rly Sub-Division,NULL,NULL
604,KODAGU(Madikeri) DAR,NULL,NULL
605,Dharwad District,NULL,NULL
606,Dharwad Sub-Division,NULL,NULL
607,Dharwad Rural Circle,NULL,NULL
608,Dharwad Rural PS,15.47500038,74.97916412
609,Garag PS,15.57011128,74.92933655
610,Alnavar PS,15.43166924,74.74002838
611,Navalgund Circle,NULL,NULL
612,Navalgund PS,15.55730629,75.35830689
613,Annigeri PS,15.429389,75.43334961
643,DHARWAD DAR,NULL,NULL
676,Mysuru Rly Circle,NULL,NULL
678,Mysuru Rly PS,12.31714821,76.64471436
681,Wadi Rly Circle,NULL,NULL
682,CID,NULL,NULL
683,Kalaburagi District,NULL,NULL
684,Kalaburagi South Sub Division,NULL,NULL
686,Station Bazar PS,17.31635094,76.82634735
687,Ashoknagar PS,17.32583427,76.81531525
688,Brahmapur PS,17.33841515,76.83786011
690,Ferhatabad PS,17.18243408,76.79024506
691,Gurumitkal PS,16.8655014,77.38942719
692,Saidapur PS,16.57480431,77.25227356
693,Kalaburagi North Sub Division,NULL,NULL
695,Chowk PS,17.33776665,76.8373642
696,Roza PS,17.34596443,76.85182953
699,Shahapur  PS,16.69948006,76.84178162
702,Gulbarga Rural Sub-Division,17.32824516,76.83596802
703,MB Nagar Circle,17.32824516,76.83596802
704,MB Nagar PS,17.32721329,76.86756134
705,University PS,17.30987167,76.87667084
707,Gulbarga Rural Circle,17.34024429,76.83912659
708,Sub Urban PS,17.35199165,76.84018707
709,Mahagoan PS,17.52105713,76.94683075
710,Kamalapur PS,17.57662582,76.97775269
711,Shahabad Sub-Division,17.13041115,76.93444061
712,Yeragera Circle,NULL,NULL
713,Shahabad Town PS,17.13041115,76.93444061
716,Kalagi  Circle,17.36111069,77.15410614
717,Madbool PS,17.28559876,77.0037384
718,Kalagi PS,17.36111069,77.15410614
721,GULBARGA DAR,NULL,NULL
722,Hassan District,NULL,NULL
723,Hassan Sub-Division,NULL,NULL
724,Shantigrama Circle,NULL,NULL
725,Goruru PS,12.82181931,76.06330872
726,Dudda PS,13.08610916,76.2047348
727,Alur PS,12.97749043,75.99075317
732,Arasikere Sub-Division,NULL,NULL
737,Arasikere Rural Circle,NULL,NULL
738,Arasikere Rural PS,13.31288528,76.25685883
739,Banavara PS,13.40481472,76.1631546
740,Gandasi PS,13.15581799,76.30463409
741,Holenarasipura Sub-Division,NULL,NULL
742,Holenarasipura Circle,NULL,NULL
744,Holenarasipura Rural PS,12.78151608,76.24751282
745,Holenarasipura Town PS,12.78717709,76.24150085
746,Arakalagud  Circle,NULL,NULL
748,Konanur PS,12.62903404,76.05454254
749,Arakalagud PS,12.76571369,76.05699158
751,Halebeedu Circle,NULL,NULL
752,Belur PS,13.174119,75.87542725
753,Arehalli PS,13.04550362,75.80184174
754,Halebeedu PS,13.21425057,75.99228668
755,Sakaleshpura Circle,NULL,NULL
756,Sakaleshpura Town PS,12.94499397,75.78829956
757,Sakaleshpura Rural PS,12.9398098,75.77975464
758,Yeslur PS,12.77729893,75.85779572
760,HASSAN DAR,NULL,NULL
782,Arasikere Rly PS,13.31460667,76.25214386
798,Wadi Rly PS,17.05176544,76.99177551
799,DCRE,NULL,NULL
800,Northern Range,NULL,NULL
801,RFSL Belgaum,NULL,NULL
802,Kolar District,NULL,NULL
803,Kolar Sub-Division,NULL,NULL
804,Gulpet Circle,NULL,NULL
805,Kolar Town PS,13.13152409,78.1335144
806,Gulpet PS,13.14566994,78.13095093
807,Kolar Traffic PS,13.13023472,78.12849426
808,Kolar Rural Circle,NULL,NULL
809,Kolar Rural PS,13.14166546,78.13692474
810,Vemagal PS,13.19190407,78.01713562
811,Malur PS,13.00252438,77.93837738
812,Mulbagal Sub-Division,NULL,NULL
813,Malur Circle,NULL,NULL
814,Masti PS,12.87305164,77.99797058
815,Mulbagal Town PS,13.15870285,78.38791657
816,Nangli PS,13.19422817,78.53717804
817,Mulbagal Circle,NULL,NULL
818,Srinivasapura PS,13.34122086,78.21268463
819,Rayalpad PS,13.53104687,78.34519196
820,Gownapalli PS,13.51122761,78.22562408
821,Chintamani Sub-Division,NULL,NULL
822,Gownapalli Circle,NULL,NULL
823,Chintamani Town PS,13.40110302,78.05373383
824,Chintamani Rural PS,13.40117168,78.05376434
825,Kencharlahalli PS,13.52233601,78.0673523
826,Kencharlahalli Circle,NULL,NULL
827,Batlahalli PS,13.58199787,78.1314621
828,Shidlaghatta Town PS,13.3936739,77.86384583
829,Shidlagatta Rural PS,13.39712906,77.86373901
830,Chickballapura Sub-Division,NULL,NULL
831,Shidlaghatta Circle,NULL,NULL
832,Dibburahalli PS,13.56741142,77.89363098
833,Chickballapura Town PS,13.43772984,77.7240448
834,Chickballapura Rural PS,13.43603325,77.72971344
835,Chickballapura Circle,NULL,NULL
836,Gowribidanur Town PS,13.608284,77.51991272
837,Gowribidanur Rural PS,13.60142422,77.50831604
838,Manchenalli PS,13.50030899,77.60220337
840,KOLAR DAR,NULL,NULL
841,Mandya District,NULL,NULL
842,Srirangapatna Sub-Division,NULL,NULL
843,K R Sagara Circle,NULL,NULL
844,Srirangapatna PS,12.42398453,76.68308258
845,Arakere PS,12.41065311,76.81352997
846,K.R. Sagar PS,12.40577793,76.57241821
848,Pandavapura PS,12.50300598,76.67358398
849,K.R. Pet Town PS,12.65924168,76.48828888
850,K.R. Pet Rural PS,12.65938854,76.48832703
851,Mandya Sub-Division,NULL,NULL
852,K.R. Pet Circle,NULL,NULL
853,Kikkeri PS,12.76871681,76.42292023
854,Mandya East PS,12.52845764,76.9007721
855,Mandya West PS,12.5266943,76.89072418
856,Mandya Town Circle,NULL,NULL
857,Mandya Traffic PS,12.52845764,76.9007721
858,Mandya Rural PS,12.51947784,76.88446808
859,Basaralu PS,12.70584393,76.81725311
860,Malavalli Sub-Division,NULL,NULL
861,Keragodu Circle,NULL,NULL
862,Shivalli PS,12.58570576,76.82389832
863,Keragodu PS,12.64313316,76.91716766
864,Nagamangala Town PS,12.81981945,76.75630188
865,Nagamangala Circle,NULL,NULL
866,Bindiganavile PS,12.88119412,76.63096619
867,Bellur PS,12.98144245,76.73564148
868,Malavalli Town PS,12.38352776,77.06044769
871,Malavalli Rural PS,12.3836422,77.06027985
872,Kirugavalu PS,12.35835838,76.94495392
873,Belakavadi PS,12.25632954,77.12211609
874,Halaguru Circle,NULL,NULL
875,K.M. Doddi PS,12.48930836,77.03516388
876,Halagur PS,12.42749977,77.22836304
877,Maddur PS,12.58778572,77.04138184
879,MANDYA DAR,NULL,NULL
880,Mysuru District,NULL,NULL
881,Mysore Rural Sub-Division,NULL,NULL
882,Mysuru Rural Circle,NULL,NULL
883,Mysuru South PS,12.31283855,76.66442871
884,Yelawala PS,NULL,NULL
885,Jayapura PS,12.20482254,76.55522919
886,K.R. Nagar Circle,NULL,NULL
887,K.R. Nagar PS,NULL,NULL
888,Saligrama PS,12.56208038,76.2636795
890,Hunusur Sub-Division,NULL,NULL
891,Hunusur Circle,NULL,NULL
892,Hunusur Town PS,NULL,NULL
893,Hunusur Rural PS,NULL,NULL
894,Bilikere PS,12.33609963,76.44783783
895,Sarguru Circle,NULL,NULL
896,H.D. Kote PS,NULL,NULL
897,Antharasanthe PS,NULL,NULL
898,Saragur PS,12.0029211,76.39542389
899,Nanjanagudu Sub-Division,NULL,NULL
900,Biligere Circle,NULL,NULL
901,Nanjanagudu Town PS,NULL,NULL
902,Nanjanagudu Rural PS,NULL,NULL
903,Biligere PS,12.15304661,76.80131531
904,T. Narasipura Circle,NULL,NULL
905,T. Narasipura PS,NULL,NULL
906,Bannur PS,12.33295918,76.86636353
907,Talakadu PS,NULL,NULL
918,MYSORE DAR,NULL,NULL
919,Uttara Kannada District,NULL,NULL
920,Karwar Sub-Division,NULL,NULL
921,Kadra Circle,NULL,NULL
922,Chittakula PS,14.85508633,74.1329422
923,Kadra PS,14.90611553,74.34615326
924,Mallapura PS,14.90040398,74.33269501
925,Karwar Circle,NULL,NULL
926,Karwar Town PS,14.80839729,74.12882233
927,Karwar Rural PS,14.80850601,74.12883759
928,Karwar Traffic PS,14.80850601,74.12869263
929,Dandeli Sub-Division,NULL,NULL
930,Dandeli Circle,NULL,NULL
931,Dandeli Town PS,15.25747395,74.62111664
932,Dandeli Rural PS,15.25743294,74.62124634
933,State Wireless,NULL,NULL
934,Joida Circle,NULL,NULL
936,Ramanagar PS,15.42365837,74.48832703
938,Sirsi Sub-Division,NULL,NULL
939,Sirsi Circle,NULL,NULL
940,Sirsi Town PS,14.62126827,74.82537079
941,Sirsi Rural PS,14.62552166,74.83769226
942,Sirsi New Market PS,14.6253643,74.83812714
944,Mundgod PS,14.96966362,75.03847504
947,Bhatkal Sub-Division,NULL,NULL
948,Bhatkal Circle,NULL,NULL
949,Bhatkal Town PS,13.99029541,74.55178833
950,Bhatkal Rural PS,13.99842167,74.53860474
951,Murudeshwar PS,14.09519768,74.48854828
952,Kumta Circle,NULL,NULL
953,Kumta PS,14.42938042,74.42002106
954,Gokarna PS,14.5439806,74.32143402
956,Bidar Rly PS,17.91217613,77.51903534
957,UTTARA KANNADA DAR,NULL,NULL
958,Raichur District,NULL,NULL
959,Raichur Sub-Division,NULL,NULL
960,Raichur East Circle,NULL,NULL
961,Sadar Bazar PS,16.20237923,77.35598755
962,Netajinagar PS,16.20070076,77.36949921
963,Raichur Rural PS,16.21981049,77.35527802
964,Raichur Rural Circle,NULL,NULL
965,Shakti Nagar PS,NULL,NULL
966,Yapaladinni PS,16.29121018,77.51854706
967,Yeregera PS,16.07298088,77.41442108
968,Sindhanoor Sub-Division,NULL,NULL
969,Raichur West Circle,NULL,NULL
970,Idapanur PS,16.00428009,77.46128845
971,Raichur West PS,16.19488907,77.34293366
972,Market Yard PS,16.21615028,77.36080933
973,Sindhanoor Circle,NULL,NULL
974,Raichur Traffic PS,16.20252991,77.34381867
975,Sindhanoor Town PS,15.7720499,76.75756073
976,Sindanoor Rural PS,15.78662968,76.76873779
977,Lingasugur Sub-Division,NULL,NULL
978,Sirwar Circle,NULL,NULL
979,Turvihal PS,15.76239967,76.5952301
980,Balaganoor PS,15.95530033,76.74990845
981,Manvi PS,15.99398041,77.04805756
982,Lingasugur Circle,NULL,NULL
983,Sirwar PS,16.17300987,77.02136993
984,Kowthal PS,16.1066494,76.79940796
985,Lingasugur PS,16.15867996,76.52249908
987,Maski Circle,NULL,NULL
988,Hutti PS,16.1944809,76.65563202
989,Maski PS,15.95384026,76.65428925
990,Mudgal PS,16.01243973,76.44184113
991,Devadurga Rural Circle,NULL,NULL
992,Devadurga PS,16.41507912,76.92916107
993,Jalhalli PS,NULL,NULL
994,Gabbur PS,16.29594994,77.16204834
995,Raichur Rly Circle,NULL,NULL
996,RAICHUR DAR,NULL,NULL
997,Shivamogga District,NULL,NULL
998,Shimoga Sub-Division,NULL,NULL
999,Doddapete Circle,NULL,NULL
1000,Doddapete PS,13.9305048,75.56659699
1001,Shivamogga West Traffic PS,13.93088532,75.56634522
1002,Shivamogga Rural PS,13.9323988,75.56452942
1003,Shivamogga Rural Circle,NULL,NULL
1004,Kumsi PS,14.06091976,75.39120483
1005,Kote PS,13.93035984,75.58276367
1006,Jayanagara PS,13.93843746,75.57576752
1007,Bhadravathi Sub-Division,NULL,NULL
1008,Kote Circle,NULL,NULL
1009,Shivamogga Women PS,13.9323988,75.56452942
1010,Thirthahalli PS,13.69821739,75.24613953
1011,Malur PS,13.72902012,75.33971405
1012,Thirthahalli Circle,NULL,NULL
1013,Bhadravathi Old Town PS,13.84689808,75.70288086
1014,Bhadravathi New Town PS,NULL,NULL
1015,Bhadravathi Traffic PS,13.83777618,75.69104767
1016,Sagar Sub-Division,NULL,NULL
1017,Bhadravathi Town Circle,NULL,NULL
1018,Bhadravathi Rural PS,13.85176468,75.70375061
1019,Holehonnur PS,13.98877144,75.68560028
1020,Paper Town PS,13.82106495,75.70204163
1021,Bhadravathi Rural Circle,NULL,NULL
1022,Sagar Town PS,14.16777611,75.02318573
1023,Sagar Rural PS,14.16767502,75.03206635
1024,Kargal PS,14.19005394,74.81484985
1025,Shikaripura Sub-Division,NULL,NULL
1027,Jog PS,14.20946217,74.8146286
1030,Sagar Rural Circle,NULL,NULL
1031,Shikaripura Town PS,14.2603159,75.36069489
1032,Shiralakoppa PS,14.38131714,75.24984741
1033,Soraba PS,14.38108063,75.09942627
1034,Raichur Rly PS,16.19181824,77.33999634
1035,SHIMOGA DAR,NULL,NULL
1036,Western Range,NULL,NULL
1037,RFSL Gulbarga,NULL,NULL
1038,Dakshina Kannada  District,NULL,NULL
1041,Mangalore North PS,12.86418438,74.83351135
1042,Mangalore South PS,12.85609818,74.83924103
1043,Mangalore East PS,12.890275,74.85279083
1045,Barke PS,12.88660145,74.83198547
1046,Urva PS,12.90218258,74.8356247
1047,Mangalore Women PS,NULL,NULL
1049,Panambur Circle,NULL,NULL
1050,Panambur PS,12.94969559,74.81356812
1051,Bajpe PS,12.98090172,74.89247894
1052,Kavoor PS,12.92223358,74.85958099
1054,Surathkal PS,12.98429489,74.80244446
1055,Konaje PS,12.80955696,74.91534424
1056,Mangalore Rural PS,12.91907978,74.89916992
1057,Puttur Sub-Division,12.77040005,75.18720245
1059,Ullal PS,12.81952763,74.84144592
1060,Puttur Town PS,12.76200008,75.20010376
1061,Sullia PS,12.55630016,75.39309692
1062,Uppinangady Circle,NULL,NULL
1063,Puttur Rural PS,12.72992516,75.22075653
1064,Uppinangadi PS,12.83950043,75.2480011
1065,Kadaba PS,12.74209976,75.46800232
1067,Mulki Circle,NULL,NULL
1068,Mulki PS,13.09420013,74.78928375
1069,Moodabidre PS,13.06643772,74.99986267
1070,Belthangadi PS,12.98970032,75.28240204
1071,Bantwala Circle,12.89070034,75.04060364
1072,Bantwala Town PS,12.88150024,75.03130341
1073,Bantwala Rural PS,12.89070034,75.04060364
1074,Vitla PS,12.76309967,75.10119629
1075,Ballari Rly PS,15.14543057,76.92347717
1076,DAKSHINA KANNADA DAR,NULL,NULL
1077,Tumakuru District,NULL,NULL
1078,Tumakuru Sub Division,NULL,NULL
1079,Tumkur Town Circle,NULL,NULL
1080,Tumakuru Town PS,13.34525108,77.1032486
1081,Tumakuru Traffic PS,NULL,NULL
1083,Thilak Park Circle,NULL,NULL
1084,Thilak Park PS,13.34166908,77.09111786
1085,New Extention PS,13.3386631,77.10988617
1087,Sira Sub Division,NULL,NULL
1088,Tumkur Rural Circle,NULL,NULL
1089,Tumakuru Rural PS,13.3424263,77.10612488
1090,Bellavi PS,13.41441917,77.01745606
1091,Kora PS,13.43940735,77.06156158
1092,Gubbi Circle,NULL,NULL
1093,Gubbi PS,13.30915356,76.9485321
1094,Chelur PS,13.44123077,76.90695953
1095,Chandrashekarpura PS,13.1511898,76.8819809
1096,Kunigal Sub-Division,NULL,NULL
1097,Amruthur Circle,NULL,NULL
1098,Kunigal PS,13.02343178,77.02125549
1099,Huliyurdurga PS,12.82468128,77.03462982
1100,Amruthur PS,12.9318676,76.93003845
1101,Turuvekere Circle,NULL,NULL
1102,Turuvekere PS,13.16556263,76.67027283
1103,Dandina Shivara PS,13.25381279,76.71192932
1105,Tiptur Sub-Division,NULL,NULL
1107,Tiptur Town PS,13.25883293,76.47905731
1110,Tiptur Rural Circle,NULL,NULL
1111,Tiptur Rural PS,13.26091766,76.46102905
1112,Nonavinakere PS,13.16547775,76.5553894
1113,Honnavalli PS,13.33283043,76.38820648
1115,TUMKUR DAR,NULL,NULL
1116,Chamarajanagar District,NULL,NULL
1117,Chamarajanagar Sub-Division,NULL,NULL
1118,Santemarahalli Circle,NULL,NULL
1119,Chamarajanagar Town PS,11.91781044,76.94252014
1120,Chamarajanagar Rural PS,11.92606354,76.9298172
1121,Chamarajanagar East PS,11.93343639,76.96081543
1122,Gudlupete Circle,NULL,NULL
1123,Gundlupete  PS,11.8089819,76.6872406
1124,Terakanambi PS,11.81764031,76.79241943
1125,Kuderu PS,12.04584026,76.9391098
1126,Kollegala Sub-Division,NULL,NULL
1127,Kollegala Circle,NULL,NULL
1128,Kollegala Town PS,12.15743637,77.10933685
1129,Kollegala Rural  PS,12.15776825,77.11247253
1130,Ramapura PS,12.00372028,77.39782715
1131,Yelandur Circle,NULL,NULL
1132,Yelandur  PS,12.05305004,77.03158569
1133,Mambali PS,12.03081894,77.59230042
1134,Santemaralli PS,12.04349709,76.97831726
1137,Hanur PS,12.08953953,77.30103302
1138,M.M. Hills PS,12.03081894,77.59230042
1154,CHAMARAJANAGAR DAR,NULL,NULL
1155,Koppal District,NULL,NULL
1156,Koppal Sub-Division,NULL,NULL
1157,Kurugod Circle,NULL,NULL
1158,Koppal Town PS,15.34876919,76.15068054
1159,Koppal Rural PS,15.34860039,76.15055084
1160,Alwandi PS,15.23162937,75.99056244
1161,Koppal Rural Circle,NULL,NULL
1162,Munirabad PS,15.27957535,76.32185364
1163,Yelburga PS,15.61332226,76.01215363
1164,Kuknoor PS,15.49262047,75.99151611
1165,Gangavathi Sub-Division,NULL,NULL
1166,Yelburga Circle,NULL,NULL
1167,Bevoor PS,15.56684589,76.17088318
1168,Gangavathi Town PS,15.42588329,76.53018951
1169,Gangavathi Traffic PS,15.42563343,76.52996063
1170,Gangavathi Town Circle,NULL,NULL
1171,Gangavathi Rural PS,15.42611122,76.52971649
1172,Karatagi PS,15.60059261,76.65803528
1173,Kanakagiri PS,15.57238102,76.4236908
1175,Gangavathi Rural Circle,NULL,NULL
1176,Kushtagi PS,15.75484181,76.19351959
1177,Hanumasagar PS,15.87274742,76.04764557
1178,Tavaregera PS,15.77002907,76.40435028
1179,Kushtagi Circle,NULL,NULL
1193,KOPPAL DAR,NULL,NULL
1194,Udupi District,NULL,NULL
1195,Udupi Sub-Division,13.33209992,74.7480011
1196,Malpe Circle,13.33259964,74.74832153
1197,Udupi Town PS,13.33069992,74.74810028
1198,Malpe PS,13.36007977,74.70352173
1199,Udupi Traffic PS,13.33259964,74.74832153
1200,Amasebailu PS,13.60289955,74.94875336
1201,Manipal PS,13.34899998,74.78607178
1202,Kapu PS,13.23410034,74.74659729
1203,Padubidri PS,13.14070034,74.77020264
1204,Karkala Sub-Division,13.22360039,74.98049927
1205,Brahmavar Circle,13.43813038,74.744133
1206,Shirva PS,13.21111965,74.83232117
1207,Konkan Railway PS,NULL,NULL
1208,Brahmavar PS,13.43813038,74.744133
1209,Byndoor Circle,13.8671999,74.62640381
1210,Hiriadka PS,13.34899998,74.85600281
1211,Kota PS,13.52820015,74.70387268
1212,Byndoor PS,13.8671999,74.62640381
1214,Kundapura Circle,13.63659954,74.68939972
1215,Kollur PS,13.86321926,74.81369782
1216,Kundapura PS,13.63659954,74.68939972
1217,Gangolli PS,13.68661022,74.6604538
1218,Karkala Circle,13.22268009,74.98107147
1219,Shankaranarayana PS,13.60439968,74.86250305
1220,Udupi Women PS,NULL,NULL
1221,Karkala Rural PS,13.22273922,74.98114014
1224,Karkala Town PS,13.22273922,74.98114014
1225,Hebri PS,13.45800018,74.99009705
1232,UDUPI DAR,NULL,NULL
1233,Bagalkot District,NULL,NULL
1234,Bagalkot Sub-Division,NULL,NULL
1235,Navanagara Circle,NULL,NULL
1236,Bagalkot Town PS,16.18130112,75.69187164
1237,Bagalkot Traffic PS,16.16013908,75.67198181
1238,Bagalkot Rural PS,16.18130112,75.69187164
1239,Bagalkot Rural Circle,NULL,NULL
1240,Kaladagi PS,16.20670509,75.49795532
1241,Hungunda PS,NULL,NULL
1242,Ilakal PS,15.96592331,76.11168671
1243,Jamakhandi Sub-Division,NULL,NULL
1244,Hungunda Circle,16.0668602,76.0606842
1245,Amengad PS,16.05652618,75.9457016
1246,Badami PS,15.92289352,75.67997742
1247,Kerur PS,16.01557732,75.54784393
1248,Badami Circle,NULL,NULL
1249,Guledagudda PS,16.04828262,77.77410889
1250,Jamakhandi Town PS,16.51060486,75.27967072
1251,Jamakhandi Rural PS,16.50974083,75.28040314
1253,Jamakhandi Circle,NULL,NULL
1254,Savalgi PS,16.67249298,75.34656525
1255,Mudhol PS,16.32959557,75.28483582
1256,Lokapur PS,16.16292,75.36722565
1257,Mudhol Circle,NULL,NULL
1258,Mahalingapur PS,16.4020977,75.10858917
1259,Banahatti PS,16.4786129,75.12351227
1260,Teradal PS,16.49520874,75.05641937
1262,Banahatti Circle,NULL,NULL
1263,Bilagi PS,16.3489399,75.61254883
1272,Kalaburgi Range,NULL,NULL
1273,RFSL Mysore,NULL,NULL
1279,Shivamogga Rly PS,13.94496632,75.58233643
1282,Mangaluru Rly PS,12.86359596,74.84254456
1286,Davanagere Rly PS,14.4675951,75.91994476
1287,Hubballi Rly Sub Division,NULL,NULL
1288,Vijayapura Rly Circle,NULL,NULL
1290,Vijayapura Rly PS,16.83084679,75.73934937
1291,Gadag Rly PS,15.43664265,75.6431427
1305,Hubballi Rly Circle,NULL,NULL
1313,KPA Mysore,NULL,NULL
1314,KSPTS Channapatna,NULL,NULL
1315,KSPTS Khanapur,NULL,NULL
1316,APTS Yelahanka,NULL,NULL
1318,KSRP Koramangala,NULL,NULL
1319,Wireless TS Adugodi,NULL,NULL
1320,TTI Bangalore,NULL,NULL
1321,PTC Gulbarga,NULL,NULL
1322,SCRB,NULL,NULL
1323,Ramanagara Sub-Division,NULL,NULL
1324,Anekal Circle,NULL,NULL
1325,Attibele Circle,NULL,NULL
1326,Kanakapura Circle,NULL,NULL
1327,Ramanagara Town Circle,NULL,NULL
1328,Ramanagara Rural Circle,NULL,NULL
1329,Harohalli Circle,NULL,NULL
1330,Anekal PS,12.71014023,77.69506836
1331,Bannerghatta PS,12.81355286,77.58144379
1332,Attibele PS,12.77893925,77.77162933
1333,Hebbagodi PS,12.82637119,77.68211365
1334,Sarjapura PS,12.86061573,77.78330231
1335,Hosahalli PS,13.43929577,77.4610672
1336,Rajanukunte PS,NULL,NULL
1337,Kanakapura Town PS,12.54654026,77.42279816
1338,Kanakapura Rural PS,12.55467033,77.42430115
1339,Kodihalli PS,12.43577004,77.49488831
1340,Sathanoor PS,12.45166016,77.32066345
1341,Ramanagara Town PS,12.71926594,77.28028107
1342,Ijoor PS,12.72955513,77.28530121
1343,Ramanagara Traffic PS,12.72851086,77.28630066
1344,Ramanagara Rural PS,12.72955513,77.28530121
1345,Bidadi PS,12.79671669,77.38321686
1346,Harohalli PS,12.68149662,77.46981812
1347,Thalaghattapura PS,12.86894131,77.53626251
1348,Gangammana Gudi PS,13.07227135,77.53011322
1349,R.M.C. Yard PS,13.02327633,77.54911041
1350,Peenya PS,13.03594494,77.52111054
1351,J.C. Nagar PS,13.00555325,77.59351349
1352,R.T. Nagar PS,13.02472115,77.59328461
1353,Sanjay Nagar PS,13.03335762,77.57572937
1354,Hebbal PS,13.03839302,77.5894928
1355,Yelahanka PS,13.09496689,77.5941391
1356,Yelahanka New Town PS,13.10012817,77.58386993
1357,Malleshwaram PS,12.99668598,77.56960297
1358,Srirampura PS,12.9902916,77.56492615
1359,Mahalakshmipuram PS,13.00271034,77.54737854
1360,Rajajinagar PS,12.99462986,77.55422211
1361,Subramanyanagar PS,13.00335312,77.55367279
1362,Rajagopal Nagar PS,13.01749802,77.51359558
1363,Nandini Layout PS,13.01239872,77.53675079
1364,Chamarajpet PS,12.96053219,77.56686401
1365,Vishveshwarapuram PS,12.96015358,77.57205963
1366,Hanumanthanagar PS,12.93623924,77.5614624
1367,Kempegowda Nagar PS,12.94916153,77.56318665
1368,Girinagar PS,12.93588543,77.54395294
1369,Shankarpura PS,12.95356178,77.5699997
1370,Joida PS,15.1626358,74.48973084
1371,Victoria Hospital PS,NULL,NULL
1372,Jayanagar PS,12.92849541,77.58123016
1373,Jayaprakash Nagar PS,12.91195774,77.58776856
1374,Thyagarajanagar PS,NULL,NULL
1375,Banashankari PS,12.92911434,77.56793213
1376,Basavanagudi PS,12.94211102,77.57420349
1377,SOUTH WOMEN PS,12.92912006,77.56800842
1378,Kumaraswamy Layout PS,12.90510082,77.56269836
1379,Subramanyapura PS,12.90117168,77.54420471
1380,Madivala PS,12.92116642,77.62073517
1381,Mico Layout PS,12.90859032,77.61065674
1382,Adugodi PS,12.93922043,77.61012268
1383,Koramangala PS,12.94139385,77.62132263
1384,Thilaknagar PS,12.92835426,77.59059143
1385,Siddapura PS,12.93883514,77.5923996
1386,Halasurgate PS,12.96681023,77.58716583
1387,East Women PS,12.98789501,77.60362244
1388,Wilsongarden PS,12.95009804,77.59610748
1389,Ashoknagar PS,17.32583427,76.81531525
1390,Viveknagar PS,12.95160389,77.62227631
1391,Sampangiramanagar PS,12.96303272,77.59207153
1392,S.J. Park PS,12.9609642,77.58316803
1393,Seshadripuram PS,12.9880209,77.57441711
1394,High Grounds PS,12.9897871,77.59279633
1395,Vyalikaval PS,13.0015049,77.5786438
1396,Sadashivanagar PS,13.01499939,77.57265472
1397,Vidhana Soudha PS,12.97794819,77.58818054
1398,Cubbon Park PS,12.97617626,77.59838104
1399,Pulakeshinagar  PS,12.99932385,77.61962891
1400,Commercial Street PS,12.98251343,77.60717011
1401,Bharathi Nagar PS,12.99125767,77.61215973
1402,Devarajeevanahalli PS,13.00939751,77.61029053
1403,Shivajinagar PS,NULL,NULL
1404,Bowring Hospital PS,NULL,NULL
1405,K.R. Puram PS,13.00901604,77.69329071
1406,Banaswadi PS,13.01963997,77.64009094
1407,Kadugondana Halli PS,13.01947117,77.61921692
1408,Hennur PS,13.02400398,77.64571381
1409,Ramamurthy Nagar PS,13.00421333,77.66600037
1410,Halasur PS,12.97484684,77.62533569
1411,Byappanahalli PS,12.9916172,77.65724182
1412,Indiranagar PS,12.9830513,77.63829804
1413,Jeevan Bheemanagar PS,12.96775341,77.6557312
1414,Mahadevapura PS,12.99673271,77.69282532
1415,Airport PS,13.19914246,77.70569611
1416,H.A.L. PS,12.95500565,77.6828537
1417,Cottonpet PS,12.96800804,77.57010651
1418,Byatarayanapura  PS,12.95139694,77.54012299
1420,Chandra Layout PS,12.9588995,77.52839661
1421,Jagajeevanram Nagar PS,12.96408176,77.5550766
1422,Jnanabharathi PS,12.95055294,77.50026703
1423,Kengeri PS,12.91047764,77.48156738
1424,Vijayanagar PS,12.97070789,77.5377655
1425,Magadi Road PS,12.97563934,77.55020905
1426,Basaveshwara Nagar PS,12.98530674,77.54257202
1427,Kempapura Agrahara PS,12.9728241,77.56149292
1428,Kamakshipalya PS,12.98222351,77.53202057
1429,Chickpet PS,NULL,NULL
1430,Upparpet PS,12.97450542,77.57481384
1431,Kalasipalya PS,12.95737076,77.57735443
1432,City Market PS,12.96499825,77.57605743
1433,Bailahongal Sub-Division,NULL,NULL
1434,Chikkodi Sub-Division,NULL,NULL
1435,Bagewadi Circle,NULL,NULL
1436,Mudalgi Circle,16.33743668,74.96418762
1437,Hukkeri Circle,16.23764992,74.60547638
1438,Bailahongala Circle,15.82115555,74.85973358
1439,Kittur  Circle,15.59982491,74.78900147
1440,Saundatti Circle,15.76888084,75.11545563
1441,Ramadurga Circle,15.94932842,75.29465485
1442,Chikkodi Circle,16.42446327,74.58804321
1443,Nippani Circle,16.41448975,74.37120819
1444,Harugeri Circle,NULL,NULL
1445,Athani Circle,16.77946091,75.2498703
1447,Siruguppa Circle,NULL,NULL
1448,Bidar Rural Circle,NULL,NULL
1449,Basava Kalyana Circle,NULL,NULL
1451,Manthala Circle,NULL,NULL
1452,Aurad Circle,NULL,NULL
1453,Belagavi City Women PS,NULL,NULL
1455,Udyambag PS,15.82068825,74.4914093
1456,Bagewadi PS,15.7761507,74.63783264
1457,Marihal PS,15.88144589,74.6641922
1458,Mudalgi PS,16.33743668,74.96418762
1459,Kulgod PS,16.24463844,75.04640198
1460,Ghataprabha PS,16.23718834,74.76622009
1461,Hukkeri PS,16.23752022,74.60520172
1462,Sankeshwar PS,16.25432015,74.48700714
1463,Yamakanmardi PS,16.12773895,74.51655579
1464,Bailahongal PS,15.81843662,74.86291504
1465,Nesargi PS,15.90715408,74.78795624
1466,Kittur PS,15.59982491,74.78900147
1467,Doddawad PS,15.67906857,74.95970154
1468,Soundatti PS,15.76327419,75.10801697
1469,Manthala PS,17.81670189,76.84948731
1470,Murgod PS,15.8866787,74.92690277
1471,Mudbi PS,17.73698425,76.93004608
1472,Ramadurga PS,15.94931507,75.29486084
1473,Katkol PS,15.98541164,75.13605499
1474,Aurad PS,18.24886513,77.41220093
1475,Santhapur PS,18.1601162,77.4360733
1476,Chintaki PS,18.21730995,77.53785706
1477,Bhalki Town PS,18.0466156,77.21554565
1478,Chikkodi PS,16.4240303,74.57672882
1479,Sadalaga PS,16.54973984,74.53240204
1480,Nippani Town PS,16.39426041,74.38384247
1481,Nippani Rural PS,16.39426041,74.38384247
1482,Basaweshwar Chowk PS,16.41090965,74.37753296
1483,Raibag PS,16.50254059,74.76985169
1484,Kudachi PS,16.62445068,74.85453033
1485,Athani PS,16.77946091,75.2498703
1486,Kagwad PS,16.69598961,74.71672058
1487,Aigali PS,16.77946091,75.2498703
1489,Sandur Circle,NULL,NULL
1491,Hagaribommanahalli Circle,NULL,NULL
1492,Hadagali Circle,NULL,NULL
1493,Golgumbaz Circle,NULL,NULL
1494,Sindagi Circle,NULL,NULL
1495,Golgumbaz PS,16.82637978,75.73872376
1496,APMC PS,16.8355999,75.72164917
1497,Adarsh Nagar PS,16.84875488,75.70886993
1501,Kudligi PS,14.90470123,76.38703919
1502,Gudekote PS,14.83222771,76.6283493
1503,Kottur PS,14.82709312,76.22861481
1504,Hosahalli PS,14.64945507,76.46518707
1505,Hagaribommanahalli PS,15.04332161,76.20066834
1506,T.B. Halli PS,NULL,NULL
1507,Hadagali PS,15.01871395,75.93440247
1508,Ittigi PS,14.95199013,76.09500885
1509,Hirehadagali PS,14.92551136,75.82965851
1510,Sindagi PS,16.9218235,76.23162079
1511,Almel PS,17.0892601,76.21880341
1512,Devara Hipparagi PS,16.81780434,76.06317139
1513,Kalkeri PS,16.67107964,76.30806732
1514,Battalion IX - Bangalore,NULL,NULL
1515,Kuduremukh Circle,NULL,NULL
1516,N.R. Pura Circle,NULL,NULL
1517,Santhebennur Circle,NULL,NULL
1518,Honnali Circle,14.23416996,75.65733337
1519,RMC Yard PS,14.45976639,75.93586731
1520,Davanagere Women PS,14.46512604,75.92017365
1521,Davanagere South Traffic PS,14.46044445,75.93097687
1522,Channagiri PS,14.02308464,75.9288559
1523,Santhebennur PS,14.17317486,76.0068512
1524,Basavapatna PS,14.20628548,75.81712341
1525,Kalasa PS,13.24145031,75.35897827
1526,Honnali PS,14.23416996,75.65733337
1527,Nyamathi PS,14.148983,75.56258392
1528,Kuduremukh PS,13.21395493,75.25244904
1529,Chincholi Sub-Division,17.45822334,77.42099762
1530,Yadgiri Sub-Division,NULL,NULL
1531,Alland Sub-Division,17.5615406,76.56073761
1535,Kalaghatagi PS,15.17450047,74.97003174
1536,Jewargi  Circle,17.01596451,76.77559662
1537,Chittapura  Circle,17.11635017,77.08280945
1538,Hubli Rural PS,15.35080624,75.13969421
1539,Chincholi Circle,17.45822334,77.42099762
1540,Kundagol PS,15.25975037,75.24011231
1541,Sulepet  Circle,17.39837647,77.346138
1542,Sedam Circle,17.17988396,77.28504181
1543,Gowribidanur Circle,NULL,NULL
1544,Yadgiri Circle,NULL,NULL
1545,Gurumitkal Circle,NULL,NULL
1546,Shahapura Rural Circle,NULL,NULL
1547,Hunasigi Circle,NULL,NULL
1548,Betageri Circle,NULL,NULL
1550,Shirahatti Circle,NULL,NULL
1551,Alland Circle,17.5615406,76.56073761
1552,Ron Circle,NULL,NULL
1553,Afzalpur Circle,17.20162392,76.3584671
1555,Chelur Circle,NULL,NULL
1556,Hullahalli PS,NULL,NULL
1557,Ragavendranagar PS,17.3370266,76.8168869
1558,Betageri  PS,15.44524956,75.6469574
1559,Betageri Extention PS,15.42786026,75.65229034
1560,Kalaburagi Traffic II PS,17.33782768,76.83708954
1561,Kalaburagi Women PS,17.32824516,76.83596802
1562,Shirahatti PS,15.14142036,75.34591675
1563,Lakshmeshwar PS,15.07131004,75.28250885
1564,Ron PS,15.39449978,75.44229889
1565,Naregal PS,15.34449959,75.49440002
1566,Gajendragad PS,15.73591995,75.9670105
1567,Mundargi PS,15.12395954,75.53016663
1568,Nargund PS,15.43185997,75.23177338
1569,Gudibande PS,13.67050362,77.70676422
1570,Jewargi PS,17.01596451,76.77559662
1571,Yedrami PS,16.85522652,76.53174591
1572,Bagepalli PS,13.78330517,77.79245758
1573,Nelogi PS,17.05835342,76.60829926
1575,Patapalya PS,13.75629139,77.94897461
1576,Chelur PS,13.70922947,78.09690857
1577,Chittapura PS,17.11635017,77.08280945
1578,Wadi PS,17.0575695,76.99167633
1579,Chincholi PS,17.45822334,77.42099762
1580,Kunchavaram PS,17.4853878,77.6282196
1581,Miryan PS,17.36305237,77.49771118
1582,Sulepet PS,17.39876366,77.34126282
1583,Ratkal PS,17.45186615,77.10832977
1584,Bylakuppe Circle,NULL,NULL
1585,Sedam PS,17.17988396,77.28504181
1586,Kurakunta PS,17.17054558,77.33796692
1587,Mudhol PS,17.0581646,77.39748383
1588,Malkhed PS,17.19517326,77.16107941
1589,Yadgiri Town PS,16.77160454,77.1378479
1590,Yadgiri Rural PS,16.76276398,77.13234711
1595,Gogi PS,16.73301506,76.74612427
1596,Wadigere PS,16.59307289,77.10054779
1597,Bheemarayanagudi PS,16.72063828,76.80381012
1598,Shorapur PS,16.52589607,76.75946808
1599,Kembhavi PS,16.64773941,76.53238678
1600,Periyapatna PS,12.33741474,76.08863831
1601,Narayanapura PS,16.25567818,76.36869049
1602,Bylakuppe PS,12.42725563,75.99741364
1603,Kodekal PS,16.35391617,76.40657044
1604,Bettadapura PS,12.46729946,76.10115814
1605,Alland PS,17.5615406,76.56073761
1606,K.M. Doddi Circle,NULL,NULL
1607,Narona PS,17.51386261,76.71721649
1608,Maddur Rural Circle,NULL,NULL
1609,Nimbarga PS,17.38743591,76.58758545
1610,Afzalpur PS,17.20162392,76.3584671
1611,Kowlande PS,NULL,NULL
1612,Revoor PS,17.31669045,76.46195221
1613,Devalagangapur PS,17.18233109,76.53494263
1614,Madanahipparga PS,17.46654129,76.36812592
1615,Hunasagi PS,16.45634079,76.52851868
1616,Hirisave Circle,NULL,NULL
1617,Besagaraghalli PS,12.63613892,77.00602722
1618,Kesthur PS,12.69169426,77.06077576
1619,Koppa PS,12.70768929,76.95722961
1620,Channarayapatna Town PS,12.90328121,76.389534
1621,Channarayapatna Rural PS,12.9121542,76.38192749
1622,Nuggehalli PS,13.00861073,76.4763794
1623,Shravanabelagola PS,12.85977078,76.48382568
1624,Hirisave PS,12.95631027,76.58483887
1625,Madhugiri Sub-Division,NULL,NULL
1626,Kyathasandra Circle,NULL,NULL
1627,Kutta Circle,NULL,NULL
1628,Ajekar PS,13.31908035,74.99960327
1629,Sira Rural Circle,NULL,NULL
1630,Chikkanayakanahalli Circle,NULL,NULL
1631,Kutta PS,11.96878624,76.05176544
1632,Srimangala PS,12.01870918,75.98980713
1633,Madhugiri Circle,NULL,NULL
1634,Pavagada Circle,NULL,NULL
1635,Kyathasandra PS,13.30826473,77.14836884
1636,Hebbur PS,13.15099335,77.03170776
1641,Mangalore Traffic Circle,NULL,NULL
1642,Sira PS,13.74416065,76.90336609
1643,Koratagere PS,13.52631474,77.24198151
1644,Kallambella PS,13.63983536,76.9371109
1645,Patanayakanahalli PS,13.88744736,76.92050171
1646,Tavarekere PS,13.79648686,76.80389404
1647,Mangalore Rural Circle,NULL,NULL
1648,Sullia Circle,12.55319977,75.39199829
1649,Belthangadi Rural Circle,NULL,NULL
1650,Hosanagara Circle,NULL,NULL
1651,Shikaripura Circle,NULL,NULL
1652,Chikkanayakanahalli PS,13.4146862,76.62115479
1653,Huliyar PS,13.58285332,76.53839874
1654,Soraba Circle,NULL,NULL
1655,Madhugiri PS,13.66158485,77.21411133
1656,Kodigenahalli PS,13.71993923,77.38666534
1657,Medigeshi PS,13.83269215,77.20530701
1658,Pavagada PS,14.10029507,77.28419495
1659,Arasikere PS,14.0839138,77.04098511
1660,Y.N. Hosakote PS,14.27932453,77.17383575
1661,Thirumani PS,14.23806667,77.43886566
1662,Mangalore East Traffic PS,12.890275,74.85279083
1663,Mangalore West Traffic PS,NULL,NULL
1664,Anavatti PS,14.56277466,75.15061951
1666,Haliyal Circle,NULL,NULL
1668,Kapu Circle,13.22889996,74.74822998
1669,Subramanya PS,12.66749954,75.61270142
1671,Honnavara Circle,NULL,NULL
1672,Venoor PS,13.01249981,75.1391983
1673,Karwar Railway PS,NULL,NULL
1674,Ankola PS,14.66018963,74.30580139
1675,Haliyal PS,15.32954121,74.76714325
1676,Ambikanagar  PS,15.12427807,74.65962219
1677,Banavasi PS,14.54138947,75.02049255
1678,Siddapura PS,14.345198,74.893863
1679,Yellapura PS,14.96526241,74.71205139
1680,Honnavara PS,14.28184509,74.45084381
1681,Manki PS,14.18630219,74.48654938
1686,Dharwad Sub-Urban PS,15.46435833,74.99803162
1687,Vidyagiri PS,15.43900681,75.01129913
1688,Hubballi North Traffic PS,NULL,NULL
1689,Hubballi South Traffic PS,NULL,NULL
1690,Dharwad Traffic PS,NULL,NULL
1691,South East Traffic Sub Division,12.94181538,77.60861206
1694,FPB Unit,NULL,NULL
1695,CAR South,NULL,NULL
1696,CAR NORTH,NULL,NULL
1740,Pension Mohalla Circle,NULL,NULL
1741,Hassan City PS,13.0029726,76.10066986
1742,Hassan Traffic PS,13.00694943,76.11354828
1743,Hassan Extn. PS,13.00694943,76.11354828
1744,Pension Mohalla PS,13.0091114,76.09557343
1745,Hosanagara PS,13.91580963,75.0657959
1747,Kalaburagi Traffic I PS,17.32158852,76.82801056
1748,Hassan Rural PS,13.0029726,76.10066986
1749,Ripponpet PS,13.99320126,75.25978851
1750,Lakkavalli PS,13.70184898,75.65414429
1752,BAGALKOT DAR,NULL,NULL
1753,Sakaleshpura Sub-Division ,NULL,NULL
1755,DCP West Traffic Division,13.0181303,77.55857849
1756,Central Traffic Sub Division,12.98331165,77.5969696
1757,East Traffic Sub-Division,12.9785347,77.64019775
1758,North Traffic Sub Division,12.99668312,77.56370544
1759,South Traffic Sub Division,12.93660545,77.57948303
1760,West Traffic Sub-Division,12.97438431,77.57507324
1761,Ashoknagar Traffic PS,12.97163296,77.61032867
1762,Adugodi Traffic PS,12.9415226,77.60858917
1763,Madivala Traffic PS,12.9209919,77.62072754
1764,Mico Layout Traffic PS,12.91327763,77.60005951
1765,Wilsongarden Traffic PS,12.95013237,77.59613037
1766,Cubbonpark Traffic PS,12.98272896,77.59585571
1767,High Grounds Traffic PS,12.98471069,77.58304596
1768,Sadashivanagar Traffic PS,13.0148468,77.57256317
1769,Halasur Gate Traffic PS,12.96656895,77.58719635
1770,Airport Traffic PS,12.95964527,77.66733551
1771,Shivajinagar Traffic PS,12.98791981,77.60342407
1772,Pulakeshinagar Traffic PS,12.99927521,77.61965179
1773,Jeevan Bhima Nagar (Indiranagar) Traffic  PS,12.97817516,77.64025116
1774,K.R.Puram Traffic PS,13.00796986,77.6938324
1775,Halasur Traffic PS,12.97469997,77.62531281
1776,Banasawadi Traffic PS,13.01950264,77.64022064
1777,Hebbal Traffic PS,13.04240894,77.588974
1778,Malleshwaram Traffic PS,12.99665737,77.569664
1779,Peenya Traffic PS,13.03607082,77.52114105
1780,R.T.Nagar Traffic PS,13.03328323,77.58856964
1781,Rajajinagar Traffic PS,12.99462891,77.55428314
1782,Yeshwanthapura Traffic PS,13.01815796,77.55817413
1783,Banashankari Traffic PS,12.92917538,77.56783295
1784,Basavanagudi Traffic PS,12.9423523,77.5741272
1785,V V Puram Traffic PS,12.95734406,77.57751465
1786,Jayanagar Traffic PS,12.92848587,77.5814743
1787,Byatrarayanapura Traffic PS,12.95057869,77.54084778
1788,Chamarajapete (Chickpet) Traffic PS,12.57363033,77.34184265
1789,City Market Traffic PS,12.97074032,77.57337952
1790,Magadi Road Traffic PS,12.97458553,77.55136108
1791,Upparpet Traffic PS,12.97442818,77.57469177
1792,Vijayanagar Traffic PS,12.96064663,77.54070282
1793,Kamakshipalya Traffic PS,12.9820385,77.53305054
1794,Yelahanka Traffic PS,13.09499168,77.59413147
1795,Kumaraswamy Layout Traffic PS,12.90116882,77.5442276
1796,HSR Layout PS,12.92010021,77.65139771
1797,Channammanakere Achu Kattu PS,12.93013382,77.56059265
1798,Hulimavu PS,12.87662792,77.60001373
1799,Electronic City PS,12.84028053,77.66306305
1800,Parappana Agrahara PS,12.87733078,77.66729736
1801,Handanakere PS,13.50304794,76.44750977
1802,Mico Layout Sub-Division,12.92844963,77.59494782
1803,Subramanyapura Sub Division,12.92930603,77.56790161
1804,DCP SouthEast Division,NULL,NULL
1805,Pavagada Rural Circle,NULL,NULL
1806,Badavanahalli PS,13.67582035,77.06479645
1807,Chickballapura District,NULL,NULL
1808,Ramanagara District,NULL,NULL
1809,State Intelligence,NULL,NULL
1810,Thirumalashettahalli Circle,NULL,NULL
1811,Thirumalashettahalli PS,NULL,NULL
1812,Anugondanahalli PS,NULL,NULL
1813,Vijayapura Circle,NULL,NULL
1814,Chennarayapatana PS,NULL,NULL
1815,Tunga Nagar PS,13.92375565,75.55448151
1816,Sulibele PS,13.18498707,77.7988739
1818,Amruthahally PS,13.05685806,77.59856415
1819,Arasikere Town PS,13.31234455,76.25679779
1820,BIAL PS,NULL,NULL
1822,Bagalur PS,13.14009571,77.67041016
1823,Agumbe PS,13.51090145,75.097435
1824,Shanthigrama PS,12.98507881,76.21770477
1849,ADGP Technical Services,NULL,NULL
1850,ADGP KSRP,NULL,NULL
1851,IGP FOREST CELL,NULL,NULL
1852,SP FOREST CELL,NULL,NULL
1853,IGP TRAINING,NULL,NULL
1854,AIG CRIME PRC,NULL,NULL
1855,SP MTO,NULL,NULL
1856,ADGP RECRUITMENT AND TRAINING,NULL,NULL
1857,DIGP CTRS,NULL,NULL
1858,IGP RAILWAYS,NULL,NULL
1859,Coastal Security Police,NULL,NULL
1860,IGP RAILWAYS,NULL,NULL
1861,PC MT WORKSHOP,NULL,NULL
1862,SUPERINTENDENT AND PRINCIPAL PRS,NULL,NULL
1863,ADGP TTM,NULL,NULL
1864,DIGP AND COMMANDER ANTINAXALITE,NULL,NULL
1865,Special Task Force,NULL,NULL
1866,COMMANDANT INDIA KSRP BN,NULL,NULL
1867,COMMANDANT MOUNTED KARP,NULL,NULL
1868,Battalion XI - Hassan,NULL,NULL
1869,DCP North East Division,13.05854797,77.58416748
1870,Yelahanka Sub-Division,13.09492397,77.59412384
1871,Devanahalli Sub-Division,13.24546814,77.71222687
1872,Sampigehalli Sub-Division,13.07453823,77.63322449
1873,Kodigehalli PS,13.06210423,77.57406616
1874,Sampigehalli PS,13.07542992,77.63343048
1875,Kothanur PS,13.05553341,77.64646912
1877,Rajarajeshwari Nagar PS,12.912817,77.52055359
1878,Vishwanathapura PS,13.27904797,77.62286377
1879,RAMANAGARA DAR,NULL,NULL
1880,CHIKKABALLAPURA DAR,NULL,NULL
1881,Hampi Sub-Division,NULL,NULL
1882,Hadagali Sub-Division,NULL,NULL
1883,Hampi Tourism PS,15.33429146,76.4662323
1884,Hampi Traffic PS,15.33420754,76.46656799
1885,Chigateri PS,14.79228497,76.074646
1886,Shikaripura Rural PS,14.27337647,75.34886169
1887,Vinobanagara PS,13.95052719,75.560112
1888,Navanagara PS,16.15911484,75.66138458
1889,Nagamangala Rural PS,12.83088112,76.7588501
1890,Jayapura PS,13.40330315,75.37373352
1891,Mallanduru PS,13.3698101,75.65591431
1892,Kundapura Sub-Division,13.61845589,74.69171906
1893,Kuduthini PS,15.19939613,76.76851654
1894,Yadgir District,NULL,NULL
1895,Whitefield Traffic PS,12.99424744,77.757164
1896,Electronic City Traffic PS,12.83919144,77.66178131
1897,North East Traffic Sub Division,13.09536743,77.5942688
1898,Chikkajala Traffic PS,13.07066441,77.63626099
1899,Devanahalli Traffic PS,13.24542809,77.71250916
1900,Nagara PS,13.81832981,75.02961731
1901,APMC Navanagar,15.39274406,75.08151245
1902,Kundapura Traffic PS,13.63696003,74.68910217
1903,IGP Internal Security,NULL,NULL
1904,I.R.B. Vijayapura,NULL,NULL
1905,PDMS Yelahanka,NULL,NULL
1906,Coastal Security Police Mangaluru,NULL,NULL
1907,Coastal Security Police Malpe,NULL,NULL
1908,Coastal Security Police Bhatkal,NULL,NULL
1909,Coastal Security Police Karwar,NULL,NULL
1910,Coastal Security Police Kumta,NULL,NULL
1911,Maddur Traffic PS,12.58809185,77.04111481
1912,Melukote PS,12.66173554,76.64808655
1913,Nelamangala Rural PS,13.08215237,77.4201889
1914,Madanayakanahally PS,NULL,NULL
1915,Hosakote Circle,NULL,NULL
1916,Avalahally PS,NULL,NULL
1917,IRB Munirabad,NULL,NULL
1918,KSRP Training Munirabad,NULL,NULL
1919,Chickballapura Traffic PS,13.44021797,77.72016144
1920,APMC Yard PS,NULL,NULL
1921,Hokrana PS,18.38445091,77.32884216
1922,Humnabad Traffic PS,17.77274323,77.12368012
1923,Nidagundi PS,16.36417961,75.92764282
1924,Alamatti PS,16.34301949,75.89777374
1925,Hiriyur Rural PS,13.95932674,76.6109314
1926,Punjalkatte PS,12.95049954,75.16799927
1927,Puttur Traffic PS,12.76200008,75.20010376
1928,Davangere North Traffic PS,14.46898556,75.91842651
1929,Gudageri PS,15.12122154,75.36252594
1930,Javagal PS,13.30212688,76.05673981
1931,Bankapura PS,14.91470528,75.27006531
1932,Devadurga Traffic PS,16.41509056,76.92919922
1933,Hosamane PS,13.85202503,75.70379639
1934,Kibbanhalli PS,13.30987644,76.64469147
1935,Ashoknagar PS,15.3653307,75.13446808
1936,Hubballi East Traffic PS,NULL,NULL
1937,Kaggalipura PS,12.80151844,77.50847626
1939,DCP East Traffic Division,12.98328114,77.59688568
1940,Cubban Park Sub division,12.97168446,77.6103363
1941,Central Sub Division,NULL,NULL
1942,North Subdivison,NULL,NULL
1943,Mangalore COP,NULL,NULL
1944,Training,NULL,NULL
1945,Training,NULL,NULL
1946,Cyber Crime Police Station CID,NULL,NULL
1947,SP & Principle APTS Bellary,NULL,NULL
1948,Coastal Security Police Hejamady,NULL,NULL
1949,Thirthahalli Sub Divison,NULL,NULL
1950,Mangalore CAR,NULL,NULL
1951,IGP Railways,NULL,NULL
1952,ADGP Railways,NULL,NULL
1953,Belgaum Camp Circle,NULL,NULL
1954,Belgaum Market Circle,NULL,NULL
1955,Intelligence Bangalore Division,NULL,NULL
1956,Intelligence Mysore Division,NULL,NULL
1957,Intelligence Mangalore Division,NULL,NULL
1958,Intelligence Belguam Division,NULL,NULL
1959,Intelligence Gulbaraga Division,NULL,NULL
1960,Intelligence DSP Bangalore Dist,NULL,NULL
1961,Intelligence DSP Davangere,NULL,NULL
1962,Intelligence PI Davangere,NULL,NULL
1963,Intelligence PI Chitradurga,NULL,NULL
1964,Intelligence DSP Tumkur,NULL,NULL
1965,Intelligence PI Madhugiri,NULL,NULL
1966,Intelligence DSP Kolar,NULL,NULL
1967,Intelligence PI KGF,NULL,NULL
1968,Intelligence PI Chickballapur,NULL,NULL
1969,Intelligence DSP Hassan,NULL,NULL
1970,Intelligence DSP Mysore,NULL,NULL
1971,Intelligence PI Hassan,NULL,NULL
1972,Intelligence DSP Chamarajnagar,NULL,NULL
1973,Intelligence DSP Mandya,NULL,NULL
1974,Intelligence DSP Kodagu,NULL,NULL
1975,Intelligence DSP Shimoga,NULL,NULL
1976,Intelligence Dakshina Kannada,NULL,NULL
1977,Intelligence PI Shimoga,NULL,NULL
1978,Intelligence DSP Chickmagalur,NULL,NULL
1979,Intelligence PI Udupi,NULL,NULL
1980,Intelligence DSP Uttara Kannada,NULL,NULL
1981,Intelligence DSP Hubli,NULL,NULL
1982,Intelligence DSP Belgaum,NULL,NULL
1983,Intelligence PI Dharwad,NULL,NULL
1984,Intelligence PI Gokak,NULL,NULL
1985,Intelligence DSP Haveri,NULL,NULL
1986,Intelligence DSP Bijapur,NULL,NULL
1987,Intelligence DSP Bagalkot,NULL,NULL
1988,Intelligence DSP Gadag,NULL,NULL
1989,Intelligence DSP Gulbarga,NULL,NULL
1990,Intelligence DSP Bellary,NULL,NULL
1991,Intelligence PI Bellary,NULL,NULL
1992,Intelligence PI Yadgir,NULL,NULL
1993,Intelligence DSP Bidar,NULL,NULL
1994,Intelligence DSP Raichur,NULL,NULL
1995,Intelligence PI Koppal,NULL,NULL
1996,Yadgir DAR,NULL,NULL
1997,Traffic Sub Division,NULL,NULL
1998,South Sub division,NULL,NULL
1999,Intelligence PI Ramanagar,NULL,NULL
2000,Jigani PS,12.78365898,77.64085388
2001,Hulimavu Traffic PS,12.85817242,77.58961487
2002,Koppal Traffic PS,15.35185814,76.15762329
2003,Kumbalagudu PS,12.87825966,77.44637299
2004,Mannalli PS,17.7612896,77.50497437
2005,Jalahalli Traffic PS,13.04840756,77.54933929
2006,Kengeri Traffic PS,12.91032505,77.48152924
2007,Shivamogga East Traffic PS,13.9213562,75.59382629
2008,Jalanagar PS,16.8070488,75.72721863
2009,Begur PS,11.94173431,76.66990662
2011,Ankali PS,16.5404911,74.67042542
2012,Bantwal Sub Division,12.88150024,75.03130341
2013,Traffic North Police Station,12.96781158,74.80568695
2014,V V Puram Traffic PS,12.32611942,76.63283539
2015,Siddarthanagar Traffic PS,12.29923058,76.67921448
2016,Nagamangala Sub Division,NULL,NULL
2017,Nanjangudu Traffic PS,NULL,NULL
2018,Belagavi City,NULL,NULL
2019,Belagavi Traffic Sub Division,NULL,NULL
2020,ISD,NULL,NULL
2021,ISD PS,NULL,NULL
2022,Forest Cell,NULL,NULL
2023,FMS Kollegala,NULL,NULL
2024,FMS Chamarajanagar,NULL,NULL
2025,FMS Puttur,NULL,NULL
2026,FMS Mangalore,NULL,NULL
2027,FMS Sakaleshpura,NULL,NULL
2028,FMS Chickmagalur,NULL,NULL
2029,FMS Sagar,NULL,NULL
2030,FMS Belgaum,NULL,NULL
2031,FMS Hubli,NULL,NULL
2032,FMS Channagiri,NULL,NULL
2033,FMS Dandeli,NULL,NULL
2035,FMS Mysore,NULL,NULL
2036,FMS Virajpet,NULL,NULL
2037,FMS Somwarpet,NULL,NULL
2038,FMS Madikeri,NULL,NULL
2039,SP Forestcell,NULL,NULL
2045,DCP Vidhana Soudha Security,NULL,NULL
2046,LH Security,NULL,NULL
2047,Vidhana Soudha Security,NULL,NULL
2048,Vikasa Soudha Security,NULL,NULL
2049,Vidhana Soudha CAR,NULL,NULL
2050,Bangalore Region,NULL,NULL
2051,Bangalore Head Qtrs DCRE,NULL,NULL
2052,Mangalore Region,NULL,NULL
2053,Kalaburagi Region,NULL,NULL
2054,Belgaum Region,NULL,NULL
2055,Davanagere Region,NULL,NULL
2056,Mysore Region,NULL,NULL
2057,Mysore CCB,NULL,NULL
2058,Mangalore CCB,NULL,NULL
2059,Hubli Dharwad CCB,NULL,NULL
2060,CCB Bengaluru City Police,NULL,NULL
2061,Mysore Lokayukta,NULL,NULL
2062,Kodagu Lokayukta,NULL,NULL
2063,Mandya Lokayukta,NULL,NULL
2064,Hassan Lokayukta,NULL,NULL
2065,Chamarajanagar Lokayukta,NULL,NULL
2066,Dakshina Kannada Lokayukta,NULL,NULL
2067,Uttara Kannada Lokayukta,NULL,NULL
2068,Chickmaglur Lokayukta,NULL,NULL
2069,Udupi Lokayukta,NULL,NULL
2070,Belgaum Lokayukta,NULL,NULL
2071,Bijapur Lokayukta,NULL,NULL
2072,Dharwad Lokayukta,NULL,NULL
2073,Bagalkot Lokayukta,NULL,NULL
2074,Haveri Lokayukta,NULL,NULL
2075,Gadag Lokayukta,NULL,NULL
2076,Gulbarga Lokayukta,NULL,NULL
2077,Bidar Lokayukta,NULL,NULL
2078,Raichur Lokayukta,NULL,NULL
2079,Koppal Lokayukta,NULL,NULL
2080,Yadgir Lokayukta,NULL,NULL
2081,Chitradurga Lokayukta,NULL,NULL
2082,Bellary Lokayukta,NULL,NULL
2083,Shimoga Lokayukta,NULL,NULL
2084,Davangere Lokayukta,NULL,NULL
2085,Tumkur Lokayukta,NULL,NULL
2086,Kolar Lokayukta,NULL,NULL
2087,Bangalore District Lokayukta,NULL,NULL
2088,K.G.F Lokayukta,NULL,NULL
2089,Chikkaballapura Lokayukta,NULL,NULL
2090,Ramanagara Lokayukta,NULL,NULL
2091,Hospet Lokayukta,NULL,NULL
2092,Bangalore City Lokayukta,NULL,NULL
2093,Karnataka Lokayukta,NULL,NULL
2094,Nargund Sub Divison,NULL,NULL
2095,Bantwala Traffic PS,12.85912991,75.05542755
2096,Belagavi CAR,NULL,NULL
2097,Executive Engineer Buiding Division,NULL,NULL
2098,Executive Engineer Electrical Division,NULL,NULL
2099,DGP Home Guards,NULL,NULL
2100,State Police Complaint Authority,NULL,NULL
2101,Chief Accounts Officer FCS,NULL,NULL
2102,Ist BN KSISF,NULL,NULL
2103,IInd BN KSISF,NULL,NULL
2104,IIIrd BN KSISF,NULL,NULL
2105,Chamarajanagar Traffic PS,11.9250412,76.93117523
2106,Kanakapura Traffic PS,12.55467033,77.42430115
2107,Coastal Security Police Gangolli,NULL,NULL
2108,Coastal Security Police Honnavar,NULL,NULL
2109,Coastal Security Police Belekeri,NULL,NULL
2110,Ballari Range,NULL,NULL
2111,CCPS Central Range Bengaluru City,NULL,NULL
2112,Cyber Crime PoliceStation Mysuru,NULL,NULL
2113,Cyber Crime PoliceStation Kalaburgi,NULL,NULL
2114,Cyber Crime PoliceStation Davanagere,NULL,NULL
2115,Cyber Crime PoliceStation Dharwad,NULL,NULL
2116,Cyber Crime Police Station Mangaluru,NULL,NULL
2117,Ramadurga Sub Division,NULL,NULL
2118,Chitradurga Women PS,14.22844029,76.41320801
2119,Jayanagara PS,13.31660366,77.11987305
2120,Tumakuru Women PS,13.34757328,77.10396576
2121,Koratagere Circle,NULL,NULL
2122,Kolala PS,13.36406136,77.3099823
2123,Byadarahalli PS,12.98671627,77.49131775
2124,Raichur Women PS,16.2024498,77.35601807
2125,Sindanur Traffic PS,15.76716995,76.74465942
2126,Harugeri PS,16.51585579,74.94943237
2127,Hassan Women PS,13.00269985,76.1075592
2128,Hampi Circle,NULL,NULL
2129,Nandi Giridhama PS,13.37813282,77.72516632
2130,Mehakar PS,18.11590958,77.01732636
2131,Kolar CEN Crime PS,13.14596462,78.12993622
2132,HSR Lay Out Traffic PS,12.92181206,77.66162872
2133,Chikkodi Town Traffic PS,16.42475128,74.57610321
2134,Magadi Sub Division,NULL,NULL
2135,Chitrahalli Gate PS,14.0958519,76.27240753
2136,Davanagere CEN Crime PS,14.43467522,75.91607666
2137,KGF CEN Crime PS,12.96555996,78.27217865
2138,Kushalanagar Rural PS,12.48459911,75.95641327
2139,Bidar Women PS,17.90740967,77.53231812
2140,Tumakuru CEN Crime PS,13.34601975,77.10227966
2141,Bommanahalli PS,12.9106102,77.62497711
2142,Dharmasthala PS,12.95289993,75.3839035
2143,Haveri Women PS,14.78403187,75.38874817
2144,Suryanagar PS,NULL,NULL
2145,Koppal CEN Crime PS,15.35178471,76.15511322
2146,Central CEN Crime PS,12.96676159,77.58714294
2147,East CEN Crime PS,12.98789501,77.60362244
2148,West CEN Crime PS,12.98536968,77.54255676
2149,North CEN Crime PS,13.07217026,77.53009796
2150,Athani Sub Division,NULL,NULL
2151,Kolar Women PS,13.13152409,78.1335144
2152,Chickaballapura CEN Crime PS,13.44038582,77.7297287
2153,Ramanagara CEN Crime PS,12.72955513,77.28530121
2154,UK CEN Crime PS,14.81443119,74.13817596
2155,Varuna PS,12.25395393,76.80922699
2156,Udupi CEN Crime PS,13.33259964,74.74832153
2157,Chikkaballapura Women PS,13.43772984,77.72385407
2158,Bellare PS,12.66399956,75.3707962
2159,Yadgiri Traffic PS,16.76279259,77.13237763
2160,Srirangapatna Rural PS,12.41458607,76.69136047
2161,Mandya Central PS,12.52303696,76.8851471
2162,Mandya Women PS,12.52845764,76.9007721
2163,Cyber Crime PS Mangaluru City,NULL,NULL
2164,E and N Crime PS Mangaluru City,12.85609818,74.83924103
2165,Channapatna Traffic PS,12.65370464,77.20050049
2166,Shorapur Sub Division,NULL,NULL
2167,Channarayapatna Traffic PS,12.90433502,76.38789368
2168,Mulbagal Rural PS,13.17378521,78.40129852
2169,Nelamangala Traffic PS,13.09544659,77.38915253
2170,Kundapura Rural PS,13.63762093,74.77255249
2171,Kankanady Town PS,12.86957359,74.87278748
2172,Traffic South Police Station,12.8692131,74.87120056
2173,Chamrajanagar Women ps,11.93353844,76.96124268
2174,Alanahally PS,12.30705547,76.70359802
2175,Shivamogga CEN Crime PS,13.93854618,75.57569122
2177,Hebbal PS,12.35320759,76.61582184
2178,Chamarajanagar CEN Crime PS,11.92638588,76.93826294
2180,Kushalnagar Traffic PS,12.48447323,75.95642853
2181,Anekal Sub Division,NULL,NULL
2182,Hosakote Sub Division,NULL,NULL
2183,Yadgiri Women PS,16.76276398,77.13234711
2184,Dharwad Women PS,15.47500038,74.97916412
2185,Kodagu Women PS,12.42654896,75.72579193
2186,Gadag Women PS,15.42959976,75.63222504
2187,Hallymysore PS,12.6579237,76.2592926
2188,Annapoorneshwari Nagar PS,12.97649574,77.51277924
2189,Ilakal Rural PS,15.96592331,76.11168671
2190,DCP Whitefield Division,12.9753561,77.75107575
2191,Whitefield Sub Division,12.99662495,77.69310761
2192,Electronic City Sub Division,NULL,NULL
2193,Bandepalya PS,12.90546799,77.64216614
2194,Beguru PS,12.87823963,77.62441254
2195,Bagalagunte PS,13.05971432,77.50374603
2196,Marathahalli Sub Division,NULL,NULL
2197,Suddaguntepalya PS,12.92525387,77.60752106
2198,Bellanduru PS,12.9191618,77.66786957
2199,Marathahalli PS,12.94561863,77.69803619
2200,Cyber Crime Police Station,12.98386669,77.59453583
2201,K G Halli Traffic PS,13.01953602,77.61904144
2202,Konanakunte PS,12.88390923,77.56639862
2203,Puttenahalli PS,12.90240574,77.57994843
2204,Khadakalat PS,16.44598961,74.47087097
2205,Ballari Women PS,15.15303898,76.91902161
2206,Chickmagalur Women PS,13.32614422,75.77366638
2207,Koppal Women PS,15.34834576,76.15101624
2208,Ramanagara Women PS,12.72955513,77.28530121
2209,DK Women PS,12.76200008,75.20010376
2210,Mysuru Women PS,NULL,NULL
2211,Chickmagalur CEN Crime PS,13.32609844,75.77407837
2212,Chitradurga Extension PS,14.22844029,76.41320801
2213,Haveri Traffic PS,14.79298687,75.39722443
2214,CEN Crime PS Mysuru City,12.28930569,76.63129425
2215,E and N Crime PS Mysuru City,12.31985569,76.65791321
2216,Indi Rural PS,17.1771183,75.95529175
2217,Bagalkot Women PS,16.15595055,75.66404724
2218,UK Women PS,14.80725575,74.12869263
2219,Hassan CEN Crime PS,13.00927067,76.10834503
2220,Bagalkot CEN Crime PS,16.15050316,75.67649078
2221,Ballari CEN Crime PS,15.15072632,76.92932892
2222,Bengaluru CEN Crime PS,NULL,NULL
2223,Belagavi CEN Crime PS,15.85037231,74.50465393
2224,Bidar CEN Crime PS,17.90740013,77.53105927
2225,Vijayapura CEN Crime PS,16.82880974,75.71466827
2226,Chitradurga CEN Crime PS,14.23099995,76.40750122
2227,DK CEN Crime PS,12.86332989,74.83197022
2228,Dharwad CEN Crime PS,15.27598953,74.59409332
2229,Gadag CEN Crime PS,15.4182806,75.63833618
2230,Haveri CEN Crime PS,14.78403091,75.38890076
2231,Kalaburagi CEN Crime PS,17.31966782,76.83065796
2232,Kodagu CEN Crime PS,12.41963673,75.73707581
2233,Mandya CEN Crime PS,12.52845955,76.9007721
2234,Mysuru CEN Crime PS,NULL,NULL
2235,Raichur CEN Crime PS,16.22196007,77.35491943
2236,Yadgiri CEN Crime PS,16.77448082,77.11354065
2237,CEN Crime PS Hubballi Dharwad City,15.35066032,75.1392746
2238,E and N Crime PS HD city,NULL,NULL
2239,Vijayapura Women PS,16.82880974,75.71466827
2240,Belagavi City CEN Crime PS,15.87030506,74.51738739
2241,KSRP PTS BELAGAVI,NULL,NULL
2242,DCP North Traffic Division,NULL,NULL
2243,Belagavi Women PS,15.87153626,74.51721191
2244,PTS Thanisandra,NULL,NULL
2245,Belthangadi Traffic PS,12.9928999,75.28849793
2246,Anti Naxal Force,NULL,NULL
2247,Bengaluru Dist Women PS,NULL,NULL
2248,PTS Aimangala,NULL,NULL
2249,PTS Mysuru,NULL,NULL
2250,Kudagi PS,16.48884773,75.83406067
2251,Battalion XII Tumakuru,NULL,NULL
2252,Kalaburagi City,NULL,NULL
2253,Kalaburagi CAR,NULL,NULL
2254,Kalaburagi Sub Urban Sub Division,NULL,NULL
2255,Kalaburagi Traffic Sub Division,NULL,NULL
2256,Kalaburagi City CEN Crime PS,17.32765389,76.83712006
2257,Kalaburagi City Women PS,17.3270607,76.83708954
2258,South CEN Crime PS,12.92911625,77.56762695
2259,SouthEast CEN Crime PS,12.92010021,77.65139771
2260,NorthEast CEN Crime PS,13.0960207,77.59732056
2261,Whitefield CEN Crime PS,12.9753561,77.75107575
2262,Channagiri Sub Division,NULL,NULL
2263,Srirangapatna Traffic PS,NULL,NULL
2264,Hosakote Traffic PS,NULL,NULL
2265,Vinobanagara Circle,NULL,NULL
2266,Shivamogga Traffic Circle,NULL,NULL
2267,K G Halli Sub Division,NULL,NULL
2268,Govindapura PS,NULL,NULL
2269,Davanagere Traffic Circle,NULL,NULL
2270,Whitefield Traffic Sub Division,NULL,NULL
2271,PTS Dharwad,NULL,NULL
2272,Amruthur Circle,NULL,NULL
2273,Y N Hosakote Circle,NULL,NULL
2274,Basavanahalli Circle,NULL,NULL
2275,Kencharlahalli Circle,NULL,NULL
2276,Gulpet Circle,NULL,NULL
2277,Keragodu Circle,NULL,NULL
2278,Halaguru Circle,NULL,NULL
2279,Aldur Circle,NULL,NULL
2280,Harugeri Circle,NULL,NULL
2281,KTJ Nagar Circle,NULL,NULL
2282,Santhebennur Circle,NULL,NULL
2283,Mayakonda Circle,NULL,NULL
2284,Azad Nagar Circle,NULL,NULL
2285,Malpe Circle,NULL,NULL
2286,Pension Mohalla Circle,NULL,NULL
2287,Shantigrama Circle,NULL,NULL
2288,Halebeedu Circle,NULL,NULL
2289,Hirisave Circle,NULL,NULL
2290,Tarikere Rural Circle,NULL,NULL
2291,Gownapalli Circle,NULL,NULL
2292,Chelur Circle,NULL,NULL
2293,Kamasamudram Circle,NULL,NULL
2294,Bethamangala Circle,NULL,NULL
2295,Budikote PS,12.90595818,78.12982941
2296,Kyasamballi PS,12.95211697,78.35938263
2297,CEN Crime PS Mangaluru City,12.86411762,74.83383942
2298,CAR West,NULL,NULL
2299,Peresandra PS,NULL,NULL
2300,Gudibande Circle,NULL,NULL
2301,PTS Kaduru,NULL,NULL
2302,PTS Hassan,NULL,NULL
2303,Govindaraja Nagar PS,12.97187042,77.5292511
2304,Centre for Counter Terrorism,NULL,NULL
2305,Special Task Force,NULL,NULL
2306,Choranuru PS,NULL,NULL
2307,Vijayanagara District,NULL,NULL
2308,Thoranagal Sub Division,NULL,NULL
2309,Vijayanagara DAR,NULL,NULL
2310,Anti Terrorist Cell,NULL,NULL
2311,RFSL Hubballi,NULL,NULL
2312,RFSL Ballari,NULL,NULL
2313,Intelligence DSP Chitradurga,NULL,NULL
2314,Intelligence DSP Chitradurga,NULL,NULL
2315,Intelligence PI Vijayanagara,NULL,NULL
2316,Hulagur PS,NULL,NULL
2317,HSR Layout Traffic Sub Division,NULL,NULL
2318,Mahadevapura Traffic PS,NULL,NULL
2319,Bellanduru Traffic PS,NULL,NULL
2320,Hennur Traffic PS,NULL,NULL
2321,Thalaghattapura Traffic PS,NULL,NULL
2322,Shivamogga Sub Division B,NULL,NULL
2323,Kengeri Sub Division,12.95139694,77.54012299
2324,Vijayapura Rural Sub Division,NULL,NULL
2325,Channarayapatna Sub Division,NULL,NULL
2326,FMS Bengaluru,NULL,NULL
2327,FMS Bengaluru I,NULL,NULL
2328,FMS Bengaluru II,NULL,NULL
2329,FMS Bengaluru III,NULL,NULL
2330,FMS Dharwad,NULL,NULL
2331,FMS Ballari,NULL,NULL
2332,FMS Kalaburagi,NULL,NULL
2333,Vijayanagara Traffic Sub Division,NULL,NULL
2334,Vijayanagar Sub Division,NULL,NULL
2335,Hungunda Sub Division,NULL,NULL
2336,INTELLIGENCE DAVANAGERE DIVISION,NULL,NULL
2337,Intelligence DSP Ramanagar,NULL,NULL
2338,Anandapura PS,NULL,NULL
2339,DCP South Traffic Division,NULL,NULL
2340,Peenya Sub Division,NULL,NULL
2341,Intelligence PI Bhatkal,NULL,NULL
2342,Chickabanavara Traffic PS,NULL,NULL
2343,Jnanabharathi Traffic PS,NULL,NULL
2344,Sureban PS,NULL,NULL
2345,North Women PS,NULL,NULL
2346,South East Women PS,NULL,NULL
2347,North East Women PS,NULL,NULL
2348,West Women PS,NULL,NULL
2349,Central Women PS,NULL,NULL
2350,Whitefield Women PS,NULL,NULL
2351,Intelligence Ballari Division,NULL,NULL
2352,Sheshadripuram Traffic PS,NULL,NULL
2353,Sanjay Nagar Traffic PS,NULL,NULL
2354,SP DCRE Bengaluru City,NULL,NULL
2355,SP DCRE HQ,NULL,NULL
2356,SP DCRE Central Range,NULL,NULL
2357,SP DCRE Southern Range,NULL,NULL
2358,SP DCRE Western Range,NULL,NULL
2359,SP DCRE Eastern Range,NULL,NULL
2360,SP DCRE Ballari Range,NULL,NULL
2361,SP DCRE Northern Range,NULL,NULL
2362,SP DCRE NE Range,NULL,NULL
2363,Bengaluru City East DCRE PS,NULL,NULL
2364,Bengaluru City West DCRE PS,NULL,NULL
2365,Bengaluru Rural DCRE PS,NULL,NULL
2366,Mysuru DCRE PS,NULL,NULL
2367,Davanagere DCRE PS,NULL,NULL
2368,Ballari DCRE PS,NULL,NULL
2369,Raichur DCRE PS,NULL,NULL
2370,Shivamogga DCRE PS,NULL,NULL
2371,Haveri DCRE PS,NULL,NULL
2372,Chitradurga DCRE PS,NULL,NULL
2373,Koppal DCRE PS,NULL,NULL
2374,Vijayanagara DCRE PS,NULL,NULL
2375,Bagalkote DCRE PS,NULL,NULL
2376,Vijayapura DCRE PS,NULL,NULL
2377,Dharwad DCRE PS,NULL,NULL
2378,Gadag DCRE PS,NULL,NULL
2379,Kalaburgi DCRE PS,NULL,NULL
2380,Bidar DCRE PS,NULL,NULL
2381,Yadgir DCRE PS,NULL,NULL
2382,Kolar DCRE PS,NULL,NULL
2383,Ramanagara DCRE PS,NULL,NULL
2384,Chikkaballapura DCRE PS,NULL,NULL
2385,Mandya DCRE PS,NULL,NULL
2386,Kodagu DCRE PS,NULL,NULL
2387,Chamarajanagara DCRE PS,NULL,NULL
2388,Hassan DCRE PS,NULL,NULL
2389,Uttara Kannada DCRE PS,NULL,NULL
2390,Dakshina Kannada DCRE PS,NULL,NULL
2391,Udupi DCRE PS,NULL,NULL
2392,Chikkamagaluru DCRE PS,NULL,NULL
2393,Tumakuru DCRE PS,NULL,NULL
2394,Belagavi DCRE PS,NULL,NULL
2395,Jayaprakash Nagar Traffic PS,NULL,NULL
